id,name,lat,lon,rest_count
2168,Sint-Dominicuskerk,51.21420578,4.425388585,821
305,Kapel van het Allerheiligste Sacrament,51.20925194,4.409604975,805
669,Heilige Geestkerk,51.20580481,4.410730328,805
247,Onze-Lieve-Vrouw-ter-Sneeuwkerk,51.21642159,4.434120929,797
2175,Heilige Familie en Sint-Corneliuskerk,51.21088502,4.433730383,789
2176,Sint-Willibrorduskerk,51.21966737,4.432286918,787
559,Heilig-Hartkerk,51.22089878,4.42228923,784
2183,Sint-Norbertuskerk,51.2068747,4.431036819,783
1110,Sint-Joriskerk,51.21262023,4.404722072,780
1092,Zusters Karmelietessen,51.21368082,4.403243522,776
154,Sint-Hubertuskerk,51.19908499,4.424140125,769
1047,Sint-Jacobskerk,51.22013181,4.410574211,763
1104,Kapucijnenklooster,51.22161862,4.414649073,763
699,Sint-Walburgiskerk,51.21043024,4.396004201,753
1096,Basiliek van het Heilig Hart,51.19707989,4.411547693,751
1076,Sint-Catharinakerk,51.22295724,4.414514329,747
354,Sint-Andrieskerk,51.2164812,4.397969838,743
1132,Sint-Annakapel,51.22174919,4.407413114,742
1705,Sint-Amanduskerk,51.22631686,4.423659622,741
1080,0,51.22033251,4.403685795,738
1095,Sint-Carolus Borromeuskerk,51.22097723,4.404705978,738
2164,Protestants Evangelische kerk,51.2236224,4.412219136,736
346,Cathedral of Our Lady,51.22032067,4.401294395,731
2161,0,51.19399575,4.410125593,728
2166,Sint-Antoniuskerk,51.22520297,4.413007251,726
2174,Sint-Janskerk,51.21529614,4.44180881,726
2165,Sint-Laurentiuskerk,51.198659,4.403265552,725
2177,Klooster en kapel van de zusters Franciscanessen,51.22336531,4.438563218,724
93,Sint-Eligiuskerk,51.22533567,4.43527381,718
731,Sint-Annakerk,51.22080455,4.441732192,713
814,Sint Michielskerk,51.20520074,4.393356421,709
2179,Sint-Pauluskerk,51.22392239,4.401346471,706
493,Sint-Willibrorduskerk,51.19273603,4.420993727,705
1106,0,51.19948653,4.394946057,694
202,Sint-Lambertuskerk,51.23177905,4.4281696,680
1800,Heilige Drievuldigheidskerk,51.20271519,4.443659589,623
6,Sint-Catharinakerk,51.19299686,4.379620139,542
676,Sint-Bartholomeuskerk,51.2415758,4.440458077,540
2178,Xaveriuskerk,51.21317806,4.451508368,520
927,Sint-Pauluskerk,51.22239157,4.460576221,492
1947,Kapel Sint-Jozef,51.0511517,3.714697138,492
1972,Ziekenhuis Toevlucht van Maria Middelares,51.04778486,3.712951356,489
2402,Sint-Barbaracollege,51.04895844,3.724352196,487
38,Saint Michaels Church,51.05350319,3.719796213,486
368,Saint Nicholas Church,51.05396769,3.722955552,484
341,Saint Bavo Cathedral,51.05299579,3.727199683,483
1968,LUCA campus Sint-Lucas Architectuur,51.05409881,3.713911614,483
1991,0,51.05374402,3.727172395,483
1933,Moederhuis van de zusters der Kindsheid Jesus,51.0542709,3.727749125,482
1980,0,51.04418233,3.724083951,482
2396,Stadsmuseum Gent,51.04404736,3.716968387,482
298,Saint James Church,51.05654622,3.727652208,480
1926,0,51.04308545,3.719740433,480
2397,Baudelokapel,51.0575934,3.728688709,479
1975,Onze-Lieve-Vrouw Sint-Pieterskerk,51.04243255,3.727416366,478
2403,0,51.05354518,3.711897535,478
2406,Kerk Paters Karmelieten,51.057038,3.716592937,477
1923,Sint-Annakerk,51.048799,3.735018042,476
2384,Onze-Lieve-Vrouw ter Hoyekerk,51.04595746,3.736327066,475
1964,Klooster van de arme klaren-coletinnen,51.05737184,3.714557373,474
1978,Nieuwen Bosch,51.04812378,3.736176236,474
2411,Sint-Godelievekapel,51.04594117,3.736924846,474
1976,St Stephens Church,51.05924803,3.720392202,472
1986,Leeuwenhok,51.0580912,3.71604148,472
2398,0,51.05773123,3.714559698,472
498,Sint-Machariuskerk,51.05434334,3.736487482,471
1936,Sint-Elisabethkerk,51.05701648,3.712307742,469
2410,0,51.04597408,3.739833258,466
2399,Cultuurkapel Sint-Vincent,51.05997387,3.717110695,464
182,Sint-Martinuskerk,51.05036483,3.703443208,462
1932,Regenboogkerk,51.04803865,3.742356097,462
763,Heilig-Sacramentskerk,51.19471969,4.442751806,461
1715,Heilige Sacramentskerk,51.24824216,4.432862357,454
1943,Sint-Pauluskerk,51.03924306,3.713173909,454
764,0,51.23020077,4.448404148,453
526,Onze-Lieve-Vrouw van het Heilig Hartkerk,51.20983038,4.452842367,447
1935,0,51.04247782,3.74505935,446
2162,Christus Koningkerk,51.18712064,4.391469427,444
264,Onze-Lieve-Vrouw Middelares en Sint-Lodewijk,51.18668616,4.426231615,441
282,Sint-Jan-Baptistkerk,51.05887434,3.703699707,441
1650,Onze-Lieve-Vrouw van Altijddurende Bijstandkerk,51.23022224,4.459647158,441
2407,Psychiatrisch Ziekenhuis Sint-Jan de Deo,51.06266289,3.723753562,441
592,0,51.04471615,3.698152652,437
248,Onze-Lieve-Vrouw-Boodschapkerk,51.25102874,4.421159483,436
2404,Kapel Sint-Antonius van Padua,51.05671939,3.746635045,429
1938,Sint-Lievenskerk,51.03723565,3.742854307,427
1949,Sint-Salvatorkerk,51.06381702,3.729788626,426
423,Begijnhofkerk Sint-Elisabeth,51.0569538,3.747730529,424
1940,Sint-Coletakerk,51.034317,3.726666633,422
336,Sint-Jozefskerk,51.0629447,3.710605171,420
2421,Heilig Hartkerk,51.05402209,3.749637561,420
2182,De Verrezen Heer,51.18829291,4.435374035,417
1985,Blaisantkerk,51.06637863,3.72175098,405
1993,Clemenspoort,51.03366073,3.706429483,393
511,Sint-Fredeganduskerk,51.22091072,4.454928453,390
2418,Sint-Pieters-buitenkerk,51.02959274,3.716486772,390
1941,0,51.06940932,3.731723001,374
80,Sint-Amanduskerk,51.06262099,3.748772135,371
1769,0,51.18813396,4.382976412,370
1983,Sint-Vincentiuskerk,51.06860595,3.709144927,368
1927,Heilige Simon en Judas-Thaddeuskerk,51.04490323,3.759402996,363
2400,Psychiatrisch Centrum Dr. Guislain,51.06697838,3.703663983,359
748,Sint-Amanduskapel,51.06296254,3.749788693,352
1957,Basisschool Pius X,51.05626464,3.765339438,349
2171,Blijde-Boodschapkerk,51.23309144,4.449895524,337
1128,0,51.1957278,4.451564824,336
1653,Sint-Rumolduskerk,51.22350573,4.469772015,332
1989,Christus Koningkerk,51.02302294,3.71903338,319
1948,Zorgcentrum Heiveld,51.06763466,3.76158663,311
51,0,51.07644338,3.72268103,294
1613,Sint-Franciscuskerk,51.24613012,4.450173612,292
617,Sint-Theresia van het Kind Jezuskerk,51.06330122,3.692138247,290
310,Onze-Lieve-Vrouw van de Rozenkranskapel,50.87523291,4.707540265,285
500,Sint-Jozefskerk,50.87688691,4.7111938,285
784,Sint-Antonius van Paduakerk,50.87215243,4.7138123,284
1541,Sancta Maria Kapel,50.87676644,4.705258819,284
2097,KADOC,50.87499978,4.704302456,284
267,Sint-Antoniuskapel,50.87597311,4.698383771,283
474,Amerikaans College,50.87317063,4.699705091,283
530,0,50.88391666,4.697558203,283
688,Abdijkerk Sint-Jan Evangelist,50.86477727,4.717628983,283
853,Onze-Lieve-Vrouw-van-Troostkerk,50.86051822,4.707443074,283
1689,Kapel Blauwput,50.88515692,4.720215051,283
1966,Sint-Theresia van Avillakerk,51.07716093,3.730563989,283
2086,Zwartzustersklooster,50.87298402,4.697981043,283
2095,Sint-Franciscuskerk,50.87123203,4.723477558,283
2149,Sint-Geertruiabdij,50.88413514,4.699255853,283
2150,Sint-Pieterskerk,50.87952613,4.701238905,283
2490,Onze-Lieve-Vrouw Middelareskerk,50.88510733,4.709710203,283
2491,Sint-Michielskerk,50.8762801,4.701034524,283
276,Sint-Jacobskerk,50.88053753,4.691153855,282
1542,Sint-Jan De Doperkerk,50.87138837,4.697479774,282
1543,Heilig-Hartkerk,50.88437384,4.722157095,282
1708,Sint-Kwintenskerk,50.87001001,4.698551557,282
2101,0,50.88143694,4.688538643,282
377,Sint-Lambertuskerk,50.86398489,4.69309012,281
1802,Onbevlekt Hart van Mariakerk,50.87625601,4.678462538,278
1839,Campus Arenberg I,50.86280133,4.687771218,274
1925,Sint-Bernadettekerk,51.07578339,3.751869477,271
344,Sint-Martinuskerk,50.8968818,4.703264755,269
1712,VBS Ter Bank Egenhoven,50.87423875,4.672616145,268
337,Sint-Godelieve kerk,51.07863648,3.713194639,263
2151,Residentie Lerkeveld,50.85925787,4.686139812,261
577,Sint-Rochuskerk,51.20501,4.465062639,247
1963,Heilig Hartkerk,51.0722832,3.694602332,242
590,Sint-Jozefskerk,51.1966223,4.45998718,241
2098,Abdijkerk,50.89178669,4.73613147,241
1125,WZC Sint-Anna,51.17970814,4.428578906,237
2413,Sint-Jozefsinstituut,51.20734285,3.220862302,233
1247,Kloosterkerk van de zusters redemptoristinnen,51.20160478,3.227603132,232
2330,Onze-Lieve-Vrouw-van-Blindekenskapel,51.20632941,3.214817079,232
1045,St. Jamess Church,51.21056314,3.220632073,231
1212,NH Brugge,51.2037461,3.216486447,231
1465,Technisch Instituut Heilige Familie,51.21044461,3.217540196,231
2191,Saint Salvators Cathedral,51.20550302,3.221570439,231
2291,Church of Our Lady,51.20464248,3.224450614,231
2329,Begijnhofkerk Sint-Elisabeth,51.20119834,3.223353341,231
2420,Academie: Bogardenkapel,51.2016384,3.22693432,231
1396,Basilica of the Holy Blood,51.20812208,3.226669712,230
1415,Sint-Godelieve,51.20338601,3.215827747,230
1436,Klooster van Ongeschoeide Karmelieten,51.21293301,3.219226239,230
2299,Huize Minnewater,51.19977282,3.222036661,230
1261,Sint-Godelieveabdij,51.20244992,3.216190695,229
1041,St. Walburga Church,51.21144999,3.229225075,228
2417,Sint-Magdalena en Sint-Catharinakerk,51.20520443,3.232036951,228
1449,0,51.21266004,3.224464786,227
1671,"Building Z, NCIA",50.87331223,4.430146007,227
1040,Sint-Annakerk,51.21206698,3.232273131,226
1046,Heilige Familiekerk,51.2097682,3.235122276,226
1382,0,51.21536703,3.231380648,226
1410,Sint-Gilliskerk,51.21481087,3.226899268,226
1413,O-L-V-ter-Potterie,51.21936273,3.230596403,226
2302,Jeruzalemkerk,51.21236855,3.233714339,226
2382,Sint-Leocollege,51.21437668,3.22973331,226
1036,Engelendale,51.21649425,3.221203723,225
1266,Engels Klooster Onze Lieve Vrouw van Nazareth,51.21468503,3.234271533,225
1956,Spermalie - Internaat De Veste,51.21910087,3.22199519,224
2449,Psychiatrisch Ziekenhuis Onze-Lieve-Vrouw,51.19731546,3.212832257,223
1958,Sint-Eligiuskerk,51.03190078,3.763162583,222
1426,Sint-Katarinakerk,51.19646697,3.236463415,221
1034,Christus Koningkerk,51.21464952,3.207997139,220
1285,Sint-Baafskerk,51.20198265,3.204623902,217
1397,Sint-Franciscuskerk,51.220855,3.242448693,213
2304,Sint-Michielskerk,51.18836341,3.212001973,210
1336,0,51.21479866,3.250338896,207
1388,Sint-Jozefkerk,51.22552202,3.232260301,207
1434,Sint-Jozef en Sint-Kristoffelkerk,51.20202994,3.249707119,207
2385,Heilige-Kruisverheffing-en-Sint-Jozefkerk,51.21405199,3.250014319,207
1044,Maria Assumptakerk,51.19507157,3.251598272,206
2433,0,51.19499148,3.251912242,206
2190,0,51.22443473,3.205021763,204
2380,Sint-Pauluskerk,51.22434409,3.205597899,204
1587,Heilig-Hartkerk,51.2226294,4.480430223,202
1292,Monastery of the Sisters Hospitallers of Saint John,51.22320484,3.194051901,197
1088,Pius X-kerk,51.1771979,4.422814397,194
1121,H.Damiaankerk,51.17654836,4.412618321,180
1466,Sint-Pieterskerk,51.2294875,3.205464961,180
1546,Sint-Theresia,51.17778398,4.436167468,180
1260,Sint-Willibrorduskerk,51.19276484,3.194963658,178
1660,0,51.22918559,4.47787872,177
1126,Medisch Instituut Sint-Augustinus,51.17485842,4.417233066,172
1620,Heilige Familiekerk,50.87403071,4.285043723,170
433,Onze-Lieve-Vrouw van de Rozenkranskerk,51.17930938,4.39094794,167
1676,Sint-Niklaaskerk,50.78691463,4.316574486,167
634,Broeders Maristen,50.8861356,4.74281741,161
1117,0,51.20793347,4.474009391,161
2434,Sint-Engelbertuskapel,50.90067863,4.314942279,152
168,Heilig Hartkerk,51.24531329,4.464211058,143
1535,The Link,50.83182209,4.471482377,137
1637,Sint-Stefaanskerk,50.86948057,4.450553204,136
1497,0,50.86418624,4.463589102,135
1083,Sint-Lodewijkskerk,51.1782387,4.453723619,134
227,Onze-Lieve-Vrouw van Smartenkerk,51.25556651,4.444785071,133
392,Sint-Pancratiuskerk,50.86232134,4.466342301,133
1611,Sint-Bavokerk,51.17045886,4.402969054,132
102,Begijnhofkerk Sint-Alexius en Catharina,51.03185914,4.474369741,131
409,Sint-Katelijnekerk,51.03186138,4.476396855,131
860,Onze-Lieve-Vrouw-van Hanswijkbasiliek,51.02236742,4.485425171,131
1570,Sint-Janskerk,51.03046478,4.480965692,131
1657,Sint-Pieter-en-Paulkerk,51.02931437,4.485344139,131
2144,St. Rumbolds Cathedral,51.02887299,4.479037082,131
2170,Sint-Jan Berchmans,51.1951121,4.475388704,131
61,Heilig Hartkerk,51.02640541,4.47266455,130
303,Sint-Jan Berchmanskerk,51.01862123,4.473184063,130
1349,Onze-Lieve-Vrouw-van-Leliëndaalkerk,51.02587137,4.480964749,130
1632,Onze-Lieve-Vrouw-over-de-Dijlekerk,51.02312237,4.478856964,130
846,0,51.0384386,4.483111805,129
848,Sint Libertuskerk,51.03298475,4.505796827,127
486,Sint-Jozef-Colomakerk,51.01271115,4.482863794,126
379,Sint-Antonius Abtkerk,51.08724788,3.727811858,124
1103,Heilige-Geestkerk,51.18401742,4.367757718,124
1378,Sint-Jakob,51.02539476,4.449598129,124
1754,GVBS Don Bosco,51.04347591,4.469541826,119
444,0,50.88338315,4.276479858,118
1089,Sint-Jan-Evangelistkerk,51.17648205,4.377947044,118
2311,0,51.17962222,3.220119097,118
124,De Goede Herder,51.04193738,4.497127418,117
708,Sint-Amanduskerk,50.91001105,4.355623167,117
1243,Damiaankerk,50.82233396,3.259335106,117
1593,Sint-Michielskerk,50.82823677,3.262975668,117
553,0,50.82638049,3.277375625,115
554,Sint-Elooiskerk,50.8334345,3.259740659,115
1239,0,50.83102911,3.263351528,115
1584,0,50.81586558,3.262213428,115
1842,Sint-Theresia van het Kind Jezuskerk,50.84142964,4.279705061,115
132,Sint-Rochuskerk,50.81996921,3.270151149,114
216,0,50.81841128,3.257878614,114
1242,Church of Our Lady,50.82907966,3.26744574,114
1704,"Guldensporencollege, campus Kaai",50.83310952,3.263439257,114
2204,0,50.82814519,3.271869031,114
747,0,50.82789782,3.270502692,113
2188,WZC Regina Coeli,51.19633993,3.181185504,113
2195,Sint-Maartenskerk,50.82756787,3.268349163,113
2200,0,50.8282122,3.267494121,113
802,Sint-Janskerk,50.82911189,3.281196673,112
721,Sint-Jozefskerk,50.8421845,4.482549658,111
757,Sint-Elisabethkerk,50.81913144,3.281963389,111
1358,0,51.04653343,4.477473583,110
1805,Pius X,50.84126505,3.268967909,110
2169,Sint-Jan Maria Vianneykerk,51.16857592,4.38769131,110
529,klooster OLV Fatima,50.83180998,3.245685123,107
2034,0,50.90635317,4.380654329,107
2310,Sint-Andreaskerk,51.1966395,3.180175321,106
256,Sint-Godelievekerk,50.84272051,3.256174753,104
902,Heilig Hartkerk,50.93541451,5.32689921,101
923,0,50.93580039,5.326706079,101
1607,Sint-Rochuskerk,50.93246971,5.336494762,101
2032,Sint-Pieterskerk,50.85339485,4.482050969,101
922,Z33 - house for contemporary art,50.93219338,5.340061653,100
2207,Virga-Jessebasiliek,50.92973964,5.336267097,100
141,Sint-Quintinuskathedraal,50.92988021,5.338825296,99
796,Sint-Hubertuskerk,50.92667472,5.328719815,99
912,Hogeschool UCLL Campus Hemelrijk,50.93063178,5.340468936,99
1617,Heilig Kruiskerk,50.92094102,5.326175703,99
2196,0,50.81198382,3.299547186,99
488,0,51.01108238,4.503913449,98
917,Clarenhof,50.9291058,5.34366289,98
2201,Onze-Lieve-Vrouw ten Spieghele,50.80434338,3.249590561,98
1602,Heilige-Familiekerk,51.1734281,4.366614573,96
1730,0,50.9115894,4.368173902,94
1830,Sint-Catharina en Sint-Corneliuskerk,50.8938839,4.435834135,94
46,Sint-Catharinakerk,50.92628513,5.35195025,92
1241,Sint-Eutropiuskerk,50.84383441,3.234759023,92
2197,Mariadorp,50.83036715,3.228834768,92
2214,Onze-Lieve-Vrouw van Banneuxkerk,50.94662498,5.355596788,92
2216,Sint-Martinuskerk,50.91769742,5.342682203,92
827,Sint-Jozefkerk,51.25383258,4.460244492,90
1275,Sint-Audomarus,50.82284826,3.227251923,90
1786,Heilig-Kruiskerk,51.17047907,4.446794131,90
1123,Sint-Petruskapel,51.2262346,4.391424421,88
540,Sint-Anna-ten-Drieënkerk,51.21853274,4.381576442,87
33,Sint-Egidiuskerk,50.87139585,4.26490222,85
1532,Sint-Ambrosiuskerk,50.84506639,4.262646947,84
1831,Sint-Stevenskerk,50.80458595,4.28453328,82
2482,Sint-Brixiuskerk,50.80744797,3.233278958,82
60,Sint-Gertrudiskerk,50.94423368,5.306240502,80
2019,Sint-Servaaskerk,50.90961182,4.302408952,78
2172,Sint-Lucaskerk,51.22522579,4.381006634,78
2020,Missiehuis van Scheut,50.79925803,4.283141093,77
649,Sint-Jan De Doperkerk,50.90023591,4.280371951,76
1129,Sint-Jozefkerk,51.15680387,4.427607214,76
478,Onze Lieve-Vrouwekerk,51.1771001,4.350791716,75
16,Onze-Lieve-Vrouw Koninginkerk,51.21551454,2.883544333,70
196,Sint-Pieterstoren,51.22967404,2.920362818,70
413,Sint-Bavokerk,50.886357,4.262797484,70
452,Sint-Jozefkerk,51.22502274,2.91352049,70
574,Sint-Jan Baptistkerk,51.21452715,2.909984851,70
599,Heilig Hartkerk,51.22124196,2.906033605,70
765,0,51.22975326,2.917769885,70
828,Sint-Catharinakerk,51.21408063,2.933920923,70
986,0,51.21177161,2.900952414,70
990,Kapucijnenkerk,51.2332774,2.919045788,70
1810,Sint-Petrus-en-Pauluskerk,51.22961016,2.921247824,70
2016,Jan Ruusbroec en Onze-Lieve-Vrouwekerk,50.79016501,4.298223154,70
2167,Sint Bernadette,51.16455136,4.450532523,70
95,Sint-Franciscuskerk,51.20889715,2.888570545,69
20,Begraafplaats Stene,51.20183763,2.915018713,68
2184,Heilige Naam Jezuskerk,51.15325482,4.390392485,67
858,Sint-Pieterskerk,50.83931045,4.250035864,66
1766,Heilige Familiekerk,51.16656593,4.427306663,64
1495,Sint-Martinuskerk,50.88134383,4.473526138,62
583,Sint-Sebastiaankerk - Église Saint-Sébastien,50.77190224,4.336046679,61
2018,Sint-Lutgardiskerk,50.79184479,4.277483028,60
265,Onze-Lieve-Vrouw-Boodschapkerk,51.20631134,4.490115176,59
1077,Sint-Jan-de-Doperkerk Oosterweel,51.24366965,4.385266068,59
2023,Chapelle Notre Dame de lAssomption,50.73989092,4.394235194,59
1471,Don Boscokerk,50.86437579,4.245919687,58
262,Sint-Jozefskerk,50.88788846,4.470250958,56
2497,Sint-Jacobuskerk,51.19310419,4.487440701,55
1742,Sint-Martinuskerk,51.20126803,4.345575413,53
696,Sint-Lambertuskerk,50.76695944,4.30760479,51
2456,Sint-Annakerk,50.83133846,4.234035835,50
208,Parochiaal Centrum Sint-Jan,50.95602429,5.327652346,49
1380,Sint-Gudulakerk,50.9139486,4.276044009,49
246,Sint-Godarduskerk,50.88499245,4.238275741,48
366,Sint-Filippuskerk,51.25048771,4.484290816,48
2024,Passionistenklooster van Sint-Michael en Sint-Jozef,50.84214665,4.497587778,48
11,Sint-Catharinakerk,50.93546203,4.044983081,45
87,Werfkapel Onze-Lieve-Vrouw Ter Druiven,50.94010413,4.043222753,45
149,Paterskerk,51.17211473,4.150002496,45
180,Heilige Familiekerk,51.15334285,4.160058612,45
228,Sint-Nicolaaskerk,51.16443239,4.14223296,45
356,Onze-Lieve-Vrouw van Bijstandkerk,50.94156678,4.053740819,45
454,Sint-Benedictuskerk,51.16545415,4.463348115,45
749,Collegekerk,51.16647105,4.140398796,45
928,Ouderenzorg Zusters Jozefienen VZW,51.15533517,4.148534469,45
996,0,51.16400788,4.147546709,45
1084,Kapel De Ark,51.16435888,4.146769683,45
1100,Sint-Jozefkerk,51.15598684,4.146580061,45
1101,Heilige Familie Basis en Secundair,51.16790953,4.139509677,45
1111,Don Boscokerk,51.16160934,4.158383337,45
1622,0,51.16752233,4.477721819,45
1849,Onze-Lieve-Vrouwkerk,51.16523585,4.138073094,45
1929,0,50.93926087,4.025292453,45
1937,Heilig Hartkerk,50.94943729,4.042923429,45
1955,0,50.93580103,4.040725184,45
1960,Stedelijk Museum t Gasthuys,50.93821929,4.042693027,45
1970,Sint-Jozefkerk,50.94116053,4.035131464,45
1984,Sint-Martinuskerk,50.93783053,4.041014469,45
2163,0,51.17618746,4.138951194,45
2181,Christus Koningkerk,51.17644318,4.139181273,45
2187,Sint-Thomas van Kantelbergkerk,51.21301287,3.282014011,45
2391,0,50.93710075,4.041131756,45
2409,Onze-Lieve-Vrouw van Meuleschettekapel,50.94075648,4.030958914,45
333,St Jobkapel,50.93112927,4.025613963,44
450,Sint-Annakerk,50.9407576,4.016531514,44
605,Sint-Cordulakerk,51.24965768,4.49933727,44
1131,Onze Lieve Vrouw van Hal,51.14943081,4.148835268,44
1738,Sint-Jan de Doper,51.15860911,4.133781545,44
1987,0,50.93262318,4.029989831,44
527,Wijkkerk Pastoor Van Ars,51.1649601,4.115715821,43
1099,Heilige hartkapel,51.17486551,4.12068219,43
1114,Kapel van de Horst,51.25854127,4.484938481,43
1959,Sint-Pauluszaal- en kerk,50.95232236,4.061588841,43
2124,Sint-Godelievekerk,50.95963561,3.116484563,43
2229,0,50.952027,3.135786358,43
2240,Klooster en retraitehuis paters redemptoristen,50.94592892,3.128973472,43
2305,Onze-Lieve-Vrouwekerk,50.94800314,3.133269635,43
2308,Sint-Amandskerk,50.94891565,3.127107585,43
441,Kapel Onze-Lieve-Vrouw Termuren,50.92342277,4.053815743,42
722,Onze-Lieve-Vrouw-van-Lourdesbasiliek,51.15634056,4.450712601,42
915,Sint-Augustinuskerk,50.94349914,3.124860439,42
1218,Heilige Kruisverheffingskerk,50.96827318,3.144762984,42
1314,Dienstencentrum Schiervelde,50.95088683,3.108444364,42
1475,Sint-Michielskerk,50.94432734,3.123512996,42
1681,Sint-Antoniuskerk,51.15639998,4.443840189,42
1944,Onze-Lieve-Vrouw-Hemelvaartkerk,50.96090793,4.034525406,42
2104,Zusters der Arme Klaren,50.94386498,3.119783953,42
2230,Burgerschool,50.94663488,3.121496312,42
2235,Klooster en retraitehuis paters redemptoristen,50.94547967,3.129064892,42
2445,VISO campus Polenplein,50.94497247,3.125491392,42
325,Heilig Kruiskerk,51.06516932,3.770462068,41
964,Sint-Jozefskerk,50.93944334,3.137004304,41
1293,AZ Delta campus Westlaan,50.93754483,3.115668131,41
1934,Sint-Jan Evangelistkerk,50.93029026,4.070469698,41
2103,Heilig-Hartkerk,50.93737067,3.122647172,41
240,Sint-Jan De Doperkerk,50.9222672,4.280842267,40
589,Onze-Lieve-Vrouw ten Hemel Opgenomenkerk,50.805401,4.233254291,40
1120,O.L.V van de Eekhoek,51.19023778,4.143581424,40
1924,Onze-Lieve-Vrouw-Hemelvaartkerk,50.92046057,4.058369897,40
131,Sint-Laurentiuskerk,51.15437528,4.470639181,39
737,Sint-Martinuskerk,50.93399032,4.32780533,39
1329,"De Kleine Stooringhe, STAP Rumbeke, SASK Rumbeke en Draadpoppentheater",50.9332037,3.144786461,39
1500,Sint-Jozefkerk,50.76279298,4.278511506,39
2031,Wolfshagenkapel,50.77081499,4.273718501,39
2405,Maaltebruggekasteel,51.0227006,3.701487842,39
588,Sint-Goriks- en Magdalenakerk,50.91002429,4.25058138,38
1013,Sint-Lambertuskerk,51.27714831,4.418557906,38
1315,Heilig Hartkerk,51.28009211,4.453284628,38
1614,Onze-Lieve-Vrouw-ter-Duinenkerk,51.21137353,2.871968665,38
2439,Sint-Petrus en Pauluskerk,50.93348925,3.154703844,38
2495,Sint-Bavokerk,51.15924306,4.492059389,38
67,Begraafplaats Wondelgem,51.08875942,3.712206187,37
280,Sint-Jozefkerk,51.17164816,4.338279584,37
391,Sint-Lambertuskerk,50.88116699,4.502753658,37
446,Onze-Lieve-Vrouw Oorzaak onzer Blijdschapkerk - Église Notre Dame Cause de Notre Joie,50.75633448,4.382134913,37
591,Filosofenfontein,50.85125464,4.673954518,37
1562,Sint-Martinuskerk,50.86231035,4.214189729,37
1644,Sint-Pancratiuskerk,50.86154459,4.512219024,37
1974,Onze-Lieve-Vrouwkerk,51.07250867,3.675787564,37
378,Putkapel,51.02246353,3.692560249,36
383,Don Bosco Kapel (Maria Hulp van de Christenen),51.02113174,3.698632455,36
1450,Sint-Theresia van het Kind Jezus,51.28454525,4.429057456,36
181,Onze-Lieve-Vrouw van de Rozenkranskerk,51.01746333,3.759453672,35
314,Sint-Jozefskapel,51.049883,3.662125195,35
610,Heilig Hartcollege,50.82889224,4.504348737,35
707,Sint-Gertrudiskerk,50.82637885,4.209849869,35
1789,Sint-Stephanuskerk,50.93855594,4.306061674,35
1962,Sint-Gerolfkerk,51.05005175,3.663363358,35
2027,Sint-Pieterskerk,50.77916844,4.243449027,35
741,Sint-Genesiuskerk,50.74482176,4.345329352,34
1086,Sint-Janskapel,51.21337443,4.52263271,34
1476,Sint-Laurentiuskerk,51.27945496,4.409954764,34
2026,Sint-Ulrikkerk,50.88005,4.218061558,34
34,Onze-Lieve-Vrouwekerk,50.74302474,4.336138841,33
480,Sint-Jozefkerk,51.14424553,4.465587698,33
736,Sint-Stefanuskerk,50.92719039,4.267435727,33
1091,Heilige Familiekerk,51.25217883,4.51557198,33
1195,Sint-Martinuskerk,50.92054171,3.160685336,33
1621,Sint-Petrus en Pauluskerk,51.20431307,4.523422091,33
1717,Sint-Antoniuskerk,50.92037903,4.241739576,33
126,Westtoren van de voormalige Sint-Lambertuskerk,51.01133098,4.514617075,32
191,Onze-Lieve-Vrouwkerk,51.07423336,3.779346461,32
387,Oostakker Basilica,51.08287769,3.763545967,32
1252,Sint-Lambertuskerk,51.011091,4.514424522,32
1677,0,50.90157279,4.2164448,32
2160,Basisschool Sint Johanna,51.20544401,4.524545382,32
2474,Onze-Lieve-Vrouwekerk,50.7933531,4.482768868,32
723,Sint-Jan-in-de-Oliekerk,51.17521309,4.523335823,31
1496,Sint-Jan-Evangelistkerk,50.82365247,4.513714445,31
205,Heilig Kruiskerk,51.32659637,4.943014152,30
207,Heilig-Hartkerk,50.97250507,5.482451045,30
291,Sint-Laurentiuskerk,50.95074268,4.308012598,30
307,0,50.97178053,5.507904831,30
376,Onze-Lieve-Vrouw van Fatimakerk,50.97360272,5.519317557,30
465,0,50.97346987,5.518639394,30
622,Huize Montfort - klooster,50.97810665,5.512637918,30
1009,Sint-Franciscus van Assisikerk,51.30873768,4.954021845,30
1107,0,51.1536013,4.361377808,30
1245,Sint-Bavokerk,51.32236973,4.985188463,30
1246,Onze-Lieve-Vrouw Middelareskerk,51.32044007,4.932008898,30
1354,Sint-Martinuskerk,51.01522537,4.441761096,30
1355,Onze-Lieve-Vrouwekerk,50.9269466,4.42520163,30
1361,Onze-Lieve-Vrouw van Troostbasiliek,50.92776414,4.429435724,30
1364,Kapel van het Heilig Aanschijn,51.32648666,4.941828073,30
1472,0,51.30567547,4.939194962,30
1493,Sint-Antoniuskerk,51.32150259,4.955436521,30
1510,Goddelijk Kind Jezuskerk,51.33112868,4.957146477,30
1711,0,50.98732922,5.491886315,30
2038,Heilig Hartkerk,51.32121938,4.942306311,30
2041,0,51.32200634,4.948812986,30
2042,Sint-Theobalduskapel,51.32901517,4.949852193,30
2128,0,51.30889485,4.954354532,30
2132,Sint-Pieterskerk,51.32313638,4.948912319,30
117,Heilig Hartkerk,50.92461693,4.412643192,29
297,Sint-Martinuskerk,50.9638924,5.500857199,29
631,Sint-Jozef Werkmankerk,50.99951482,5.508080721,29
845,Allerheiligste Verlosserkerk,50.92826058,4.41069803,29
1269,Onze-Lieve-Vrouw van Altijddurende Bijstandkerk,51.29400026,4.439174494,29
1368,0,50.93663612,4.434378617,29
1376,Sint-Corneliuskerk,50.92387494,4.399235648,29
1630,Sint-Rumolduskerk,50.83428946,4.192070554,29
2105,Onze-Lieve-Vrouw Hemelvaartkerk,50.98772622,5.537959804,29
2428,Sint-Antonius Abtkerk,51.33645796,4.973603481,29
241,Sint-Jan de Doperkerk,51.03093901,3.668762094,28
408,Sint-Martinuskerk,50.92717963,4.455009954,28
455,0,50.87736801,4.753227262,28
467,Sint Gertrudiskerk,50.91259376,4.435146946,28
523,Sint-Denijskerk,51.02285197,3.670434968,28
627,Sint-Niklaaskerk,51.00092556,3.716493755,28
1967,0,51.00124481,3.716242736,28
2100,0,50.90652936,4.681168915,28
2152,jeugdhuis De Bar,50.88455473,4.662897925,28
185,Sint-Amanduskerk,51.10069884,3.764332479,27
1581,Zusters Missionarissen Immaculati Cordis Mariae,50.88376174,4.758336091,27
1674,Sint-Caroluskerk,50.9106263,4.720450849,27
1700,Missiehuis van Scheut,50.88432484,4.759925753,27
1765,Onze-Lieve-Vrouw van de Rozenkranskerk,50.96131372,5.486017765,27
1771,Sint-Katharinakerk,50.90290368,4.516983341,27
1969,0,51.02115042,3.670160679,27
2395,Sint-Franciscusinstituut,51.0186276,3.76941672,27
364,Sint-Jozefkerk,51.040955,4.44381241,26
1130,0,51.25066158,4.530627396,26
1590,Maria Moeder van de Kerk,50.94824105,5.501861173,26
2057,Sint Vincentschool,51.29763804,4.409880135,26
2088,Onze-Lieve-Vrouwkerk,50.90716712,4.674098479,26
245,Sint-Rumolduskerk,50.90985913,4.512207389,25
355,Onze-Lieve-Vrouw Boodschapkerk,50.95774196,4.287343454,25
374,Vzw Borgerstein,51.04060933,4.512737882,25
697,Sint-Martinuskerk,51.13496513,4.44548676,25
750,Sint-Michiel-en-Sint-Reneldiskerk,50.86098259,4.660177572,25
1385,Sint-Antoniuskerk,51.29006839,4.492233644,25
1625,Kapel,50.85341121,4.750110779,25
1672,Sint-Stefanuskerk,50.93097319,4.227588963,25
1807,Sint-Jozefkerk,50.85656741,4.536757885,25
2218,KIDS,50.95023767,5.372257856,25
195,Onze-Lieve-Vrouw-ter-Sneeuwkerk,51.05582985,3.799037791,24
406,0,50.91018723,4.202090863,24
854,Heilige Kruiskerk,51.2193936,4.326468894,24
1823,Oekraïens-Katholieke kerk,50.9996243,5.518637968,24
1828,Sint-Gertrudiskerk,50.87190396,4.176390664,24
1856,Onbevlekt Hart van Maria- en Margaretakerk,51.34176459,3.286327337,24
1859,Heilig Hartkerk,51.35110208,3.291591224,24
1863,Kristus-Koningkapel,51.34257476,3.262009349,24
1867,Heilige Familiekerk,51.34029524,3.260674653,24
2473,Onze-Lieve-Vrouwkerk,50.8001188,4.189483491,24
120,"Onze-Lieve-Vrouw, Koningin van Alle Heiligenkerk",51.2646384,4.533139112,23
148,Onze-Lieve-Vrouw Onbevlekt Ontvangen,51.30542014,4.435276583,23
1703,Onze-Lieve-Vrouw-ten-Boskerk,51.19327259,4.17858617,23
1855,AZ Zeno campus Knokke-Heist,51.33807048,3.304735991,23
1857,0,51.35267977,3.305471275,23
2060,0,51.27903445,4.518752076,23
494,Sint-Pietersbandenkerk,50.99457311,3.746419324,22
1119,Sint-Ritacollege,51.13011192,4.434673065,22
1490,Heilige Familiekerk,51.30167112,4.471254266,22
1702,Onze-Lieve-Vrouwekerk,50.88596336,4.542180111,22
2322,0,51.22269113,4.545394818,22
2381,Heilig Kruiskerk,51.02803202,3.799291522,22
178,Sint-Leonarduskerk,51.133622,4.38759313,21
445,Sint-Martinuskerk,50.91100257,4.196071917,21
1865,Sint-Antonius-Abtkerk,51.33940953,3.235886934,21
1884,Onze-Lieve-Vrouw-Ten-Hemel-Opgenomenkapel,51.18373868,4.545545554,21
2029,Sint-Martinuskerk,50.81220612,4.167006979,21
2033,Sint-Remigiuskerk,50.85266204,4.161597919,21
2064,Sint-Jozefskerk,50.90465854,5.35771176,21
94,Onze-Lieve-Vrouw Onbevlekt Ontvangenkerk,51.12773088,4.472271152,20
161,0,50.88572467,4.549268014,20
492,Sint-Niklaaskerk,51.14362762,4.345663779,20
495,Maria Hemelvaartkerk,50.89816603,4.643938842,20
725,Heilig Kruiskerk,50.85955835,4.763185868,20
1363,Sint-Jozefkapel,51.30912524,4.421746037,20
1673,Onze-Lieve-Vrouw-Geboortekerk,51.1276911,4.495946665,20
1788,Sint-Kwintenkerk,50.80671413,4.154459062,20
1812,Onze-Lieve-Vrouw-Bezoeking,50.93712549,5.384353868,20
2415,Onze-Lieve-Vrouw van Fatimakerk,51.30850595,4.418062736,20
138,Sint-Ursulakerk,50.83166103,4.140596944,19
144,Sint-Elooiskapel,50.98459409,3.722156295,19
284,0,50.82023942,5.214176262,19
323,Onze-Lieve-Vrouw-Geboortekerk,51.3068007,4.404760905,19
1050,Sint-Lambertuskerk,50.79820143,5.176430328,19
1139,Sint-Gangulfuskerk,50.81858507,5.183598644,19
1156,0,50.81329804,5.171590063,19
1162,Salvator Mundikerk,50.83113851,5.198911507,19
1163,Begijnhofkerk,50.82161868,5.193881661,19
1167,Sint-Augustinuskerk,50.82129326,5.175198239,19
1176,Sint Petrus en Paulus kerk,50.80373181,5.154198476,19
1187,Heilig-Kruiskerk,50.82889965,5.186964922,19
1203,Minderbroederskerk,50.81394646,5.185599321,19
1205,Sint-Maartenkerk,50.81573153,5.182315037,19
1518,Jongenstehuis Don Bosco,51.17207018,4.54323601,19
1747,Sint-Catharinakerk,50.87332748,4.156670511,19
1785,Onze-Lieve-Vrouwekerk,51.17106056,4.312043542,19
2071,0,50.81848262,5.19010752,19
2074,Onze-Lieve-Vrouwekerk,50.815591,5.187074618,19
2079,0,50.81807215,5.183049324,19
2082,Sint-Jacobskerk,50.81909302,5.193460772,19
2084,Psychiatrisch Ziekenhuis Asster,50.81183949,5.177100318,19
2312,Sint-Pieterskerk,50.80880534,5.181978578,19
142,Sint-Augustinuskerk,51.0599423,4.483911113,18
322,Sint-Jacobuskerk,51.31641908,4.426833862,18
496,Sint-Katharinakerk,50.81583402,4.552589678,18
499,Sint-Martinuskerk,51.00451549,3.803067622,18
832,Sint-Lambertuskerk,50.96320411,5.354480499,18
1886,Zevenbergen,51.19489844,4.557254388,18
5,Onze-Lieve-Vrouw Onbevlekt Ontvangen,51.13776423,4.336553174,17
59,Sint-Henricuskerk,50.97865514,3.72675992,17
426,Begijnhofkerk,51.02716593,4.097736404,17
466,Sint-Margrietkerk,51.05413647,4.106767248,17
654,Sint-Lutgartkerk,51.02660133,4.124593363,17
760,Sint-Pauluskerk,50.83468732,4.558431459,17
1051,Sint-Laurentiuskerk,50.80223369,5.219092601,17
1056,Onze-Lieve-Vrouw Bezoekingskerk,50.81878565,5.143071942,17
1202,Sint-Eucheriuskapel,50.80004428,5.220135942,17
1348,Sint-Pietrs en Paulusabdij,51.02954357,4.099634642,17
1359,Onze-Lieve-Vrouwekerk,51.03219709,4.094372296,17
1371,Sint-Egidiuskerk,51.01895856,4.110360658,17
1408,Sint-Joriskapel,50.82911804,5.209697432,17
1524,Sint-Jozefkerk,51.31587654,4.460872314,17
1665,0,51.03171631,4.096755875,17
1707,Sint-Gillis-Binnenkerk,51.02731835,4.100679061,17
1716,Sint-Jozef Arbeiderkerk,51.03316956,4.115357274,17
1794,Onze-Lieve-Vrouw-Geboortekerk,51.12227238,3.781025348,17
2147,Onze-Lieve-Vrouw van Zwijvekekerk,51.02044668,4.091686506,17
2325,Onze-Lieve-Vrouw-ten-Hemel-Opgenomenkerk,51.23328575,4.555223029,17
2334,0,50.81127608,5.234778069,17
125,Sint-Niklaaskerk,51.0959804,3.833694069,16
545,Sint-Martinuskerk,50.97135916,3.714940272,16
718,Onze-Lieve-Vrouw Middelareskerk,51.11236447,3.812856075,16
751,Sint-Kwintenkerk,50.89584525,4.767534901,16
803,Sint-Maria Magdalenakerk,50.79886231,4.548886282,16
997,0,51.10866554,4.388110666,16
1078,Basisschool De Wingerd,51.10122896,4.411548364,16
1446,Sint-Jozefskerk,51.303603,4.506349811,16
1652,Sint-Amanduskerk,50.84870957,4.136783624,16
1759,Heilige Maria Magdalenakerk,51.10093298,4.413129762,16
17,Kapel,51.2403904,2.940021059,15
123,Evangelische Christengemeente Zwartberg,51.00872029,5.502908458,15
198,Abij Bethlehem,51.03030898,4.539377195,15
229,Residentie La Foresta,50.83302935,4.693295865,15
361,Heilige Familiekerk,50.90426186,4.166255724,15
370,Sint-Niklaaskerk,51.03312062,4.419101268,15
692,Sint-Aldegondiskerk,50.97951979,3.77225205,15
991,Sint-Antonius van Paduakerk,51.23119856,2.94393162,15
1074,Sint-Lambertuskerk,50.89835305,5.306748466,15
1311,Italiaanse kerk,51.0032385,5.510103596,15
1375,Sint-Ludwinakerk,51.03559105,4.535848811,15
1599,Christus Koningkerk,51.000218,5.530012114,15
1675,0,50.73785366,4.503331124,15
1868,Sint-Vincentiuskerk,51.31518007,3.250405131,15
1876,Heilig Hartkerk,51.13817934,4.559976322,15
1892,Sint-Catharinakerk,51.26294582,4.554309591,15
2360,Sint-Pancratiuskerk,51.19049102,4.560490054,15
294,Sint-Petrus en Pauluskerk,51.12928142,4.335925763,14
1213,Sint-Martinus- en Sint-Ludovicuskerk,50.87841145,4.570314464,14
1459,Sint-Agathakerk,50.92863695,4.724137292,14
1527,Onze-Lieve-Vrouw Onbevlekt,51.12407067,4.550560145,14
1740,0,50.74351224,4.403048422,14
2007,Sint-Hadrianuskerk,50.92670652,4.702472073,14
2022,Sint-Barbarakerk,50.73876247,4.372596216,14
2094,Sint-Amanduskerk,50.90373857,4.558073014,14
19,Sint-Jozefskerk,51.22320659,2.955387495,13
66,Onze-Lieve-Vrouw van Bijstandkerk,51.06611061,4.457515307,13
130,Sint-Pieterskerk,51.14694562,4.299967383,13
243,Sint-Rafaëlkerk,51.20618677,2.858479794,13
342,Sint-Machariuskerk,51.02972407,3.850739083,13
385,Sint-Baafskerk,50.98421601,3.798043283,13
628,Sint-Amanduskerk,51.04709307,4.422598787,13
684,Onze-Lieve-Vrouw van Goede Wilkerk,51.09403817,4.51036598,13
809,0,51.13050202,4.56639188,13
1105,Vrije school De Basis en Klooster,51.0938951,4.498919946,13
1351,Sint-Pieterkerk,50.98408067,4.465066299,13
1356,Onze-Lieve-Vrouw van Goede Bijstandkerk,50.99134394,4.49335544,13
1482,Onze-Lieve-Vrouwkerk,51.02271189,4.548065016,13
1568,Heilig Hart,50.94722384,4.411901541,13
1817,Sint-Martinuskerk,51.09454049,4.500650886,13
1885,Sint-Margaritakerk,51.12829391,4.567762779,13
1896,Zorgcentrum Sint-Lodewijk,51.2634767,4.556935956,13
2496,Sint-Michielskerk,51.10570354,4.454885631,13
286,Salve Mater,50.85490094,4.776852218,12
704,Sint-Elisabeth van Hongarijekerk,50.73329019,4.325376932,12
738,Sint-Catharinakerk,51.09116382,4.393145999,12
797,Sint-Annakerk,51.00868643,3.839742926,12
1081,0,51.09388342,4.493983779,12
1098,0,51.11952145,4.333340938,12
1197,0,50.9027055,5.395680447,12
1330,Sint-Mauruskerk,50.92115195,4.756361262,12
1420,Sint-Servatiuskerk,50.9305367,4.540686043,12
1480,Goddelijk Kind Jezuskerk,51.31516637,4.501611307,12
1522,Sint-Stephanuskerk,50.91896782,4.564800351,12
1550,Heilig Hartkerk,51.09977124,4.368680914,12
1721,Onze-Lieve-Vrouwekerk,50.83079494,4.727229698,12
1877,0,51.14491694,4.575366489,12
1893,0,51.24878065,4.57446399,12
2475,Sint-Judocuskerk,50.74866891,4.518723201,12
31,Sint-Theresiakerk,50.99902408,3.864770265,11
172,Sint-Annakerk,50.96316551,3.755868237,11
419,Sint-Agathakerk,50.96812331,3.793033056,11
563,Sint-Amanduskerk,50.95910212,3.780669237,11
685,Sint-Annakerk,50.83833216,4.662453086,11
698,Sint-Andreas en Ghislenuskerk,51.14602155,4.088653365,11
779,Onze-Lieve-Vrouw van Smartenkapel,51.12115763,4.326076121,11
800,Sint-Baafskerk,50.97107212,3.815528163,11
1102,O.C. Boerenpoort,51.22037344,4.284391672,11
1341,Begraafplaats Nazareth,51.33787712,4.910045603,11
1463,Onze-Lieve-Vrouwkerk,50.94170174,4.549005314,11
1667,Sint-Theresiakerk,51.24629411,2.961255646,11
1735,Sint-Gaugericuskerk,50.7291186,4.299757794,11
1878,Heilig Kruiskerk,51.13588009,4.56893159,11
1879,Zwartzustersklooster,51.12900213,4.573735461,11
1881,Sint-Pieterskapel,51.13053054,4.57485151,11
1883,0,51.14655295,4.605604605,11
1890,Sint-Jacobskapel,51.1307847,4.57038628,11
2025,Onze-Lieve-Vrouwkerk,50.82215078,4.114027024,11
2028,Sint-Jozefkerk,50.87622196,4.129938788,11
2327,Heilige Familiekerk,51.12857457,4.58714964,11
2342,0,51.15277064,4.581734321,11
2365,Sint-Gummaruskerk,51.13002311,4.574586069,11
2378,Sint-Apolloniakerk,51.02917081,4.054558439,11
2387,Heilig Hartbrouwerij,50.9892363,3.835754401,11
2469,Sint-Martinuskerk,50.84069098,4.116090323,11
2487,Sint-Pieterskerk,50.9049543,4.56898384,11
10,Sint-Rikierkerk,51.23514147,2.977563491,10
91,Maria Magdalenakapel,50.82678459,4.688690873,10
122,Onze-Lieve-Vrouw ten Hemel Opgenomenkerk,51.01055484,3.878080883,10
150,Sint-Jozefkerk,51.16033996,4.207559045,10
173,Sint-Jan-Evangelistkerk,50.82754096,4.717864033,10
863,Onze-Lieve-Vrouwekerk,51.22136815,4.282125034,10
904,Sint-Jozefskerk,50.94910884,5.273242752,10
918,Sacramentskapel,50.9567955,5.280143703,10
1031,0,50.9019179,4.625553712,10
1278,Onbevlekt Hart van Mariakerk,51.30939751,5.002268404,10
1346,Sint-Engelbertus en Bernarduskerk,50.99219651,4.416194565,10
1360,Sint-Jozefkerk,51.07974191,4.396814414,10
1377,Grimbergen Abbey Church,50.93347398,4.37133585,10
1393,Onze-Lieve-Vrouw-Onbevlekt-Ontvangenkerk,51.32310864,4.520645145,10
1474,Sint-Gummaruskapel,51.1611978,4.600152214,10
1583,Sint-Pauluskerk,51.19414539,4.096512389,10
1729,Sint-Niklaaskerk,50.79509179,4.118073823,10
1750,Sint-Lambertuskerk,50.85379341,4.782288506,10
1793,Sint-Pieterskerk,51.07801618,4.427007305,10
1795,Sint-Clemenskerk,50.76791662,4.472295753,10
1829,Sint-Pieterskerk,50.87039383,4.794001872,10
1891,Sint-Guibertuskerk,51.23169778,4.583272849,10
2093,Sint-Lambertuskerk,50.84794178,4.590957511,10
2158,koetshuis,51.14451409,4.085180697,10
2296,Sint-Pietersabdij,51.18224581,3.235531266,10
2323,Sint-Gummaruskerk,51.16261382,4.606996296,10
2489,Sint-Laurentiuskerk,50.90134962,4.624474031,10
4,Onze-Lieve-Vrouwkerk,51.10964503,4.327743486,9
65,Sint-Antonius Abtkerk,50.94955445,4.464425777,9
81,Heilige Familiekerk,50.97990615,4.5297863,9
169,Sint-Michielskerk,50.90302743,4.613595789,9
343,Onze-Lieve-Vrouw Hemelvaartkerk,50.92346961,4.004172724,9
371,Sint-Petrus en Pauluskerk,51.14316616,3.765768188,9
642,Harmonium Art Museum,51.08025622,4.365439382,9
724,Onze-Lieve-Vrouwekerk,50.78996447,4.583905399,9
744,Sint-Martinuskerk,50.91689769,4.47581343,9
771,Woestijnkapel,50.81282827,4.080601352,9
776,0,51.08879178,4.3680999,9
790,Sint-Martinuskerk,50.97206648,4.47997845,9
867,Onze-Lieve-Vrouwkerk,50.99239253,4.556203835,9
1097,0,51.19555403,4.093738913,9
1473,Heilig-Hartkerk,50.92792938,4.637023048,9
1641,0,50.77074221,4.503659679,9
1801,Sint-Pieterskerk,50.8609442,4.62866252,9
1999,Politie Bodukap (hoofdcommissariaat),51.05473698,4.544333311,9
2072,Kasteel dErckenteel,50.89914525,5.276567977,9
2127,Onze-Lieve-Vrouw Berg Carmelkerk,51.28717572,4.945269257,9
2134,Onze-Lieve-Vrouw Berg Carmelkerk,51.28729673,4.945383533,9
2146,Onze-Lieve-Vrouw en Sint-Rochuskerk,51.08572026,4.364881593,9
2375,Onze-Lieve-Vrouw-Onbevlekte- Ontvangeniskerk,51.18789903,3.274839678,9
49,Sint-Daniëlkerk,51.07976984,3.878717798,8
105,Onze-Lieve-Vrouw van Zeven Smartenkerk,50.89484692,4.454438221,8
116,Sint-Amanduskerk,50.96676563,5.283153824,8
145,Sint-Amanduskerk,51.05630722,4.372287841,8
151,Sint-Hilariuskerk,50.827472,4.759744224,8
460,ten Beeldeken,50.96361025,4.06153406,8
703,Sint-Gertrudiskerk,51.00741643,3.885468545,8
715,Sint-Pieters-Bandenkerk,50.90092786,4.04506633,8
1214,Salesianen van Don Bosco,50.83046939,4.652785532,8
1326,Onze-Lieve-Vrouwkerk,51.31276505,4.887076881,8
1353,0,50.93130368,4.097348275,8
1544,St. Amanduskerk (Ten Bos),50.91065314,4.082278148,8
1651,Sint-Petrus-en-Pauluskerk,51.25212906,4.276863492,8
1664,Onze-Lieve-Vrouwekerk,50.95174196,4.365588026,8
1822,Sint-Bartholomeuskerk,50.83930206,4.641165311,8
2076,Onze-Lieve-Vrouw Onbevlekt Ontvangenkerk,50.8983837,5.276127088,8
2077,Sint-Niklaaskerk,50.88301461,5.352843927,8
2227,Sint-Jozefskerk,50.90968413,4.028557246,8
2317,Onze-Lieve-Vrouwekerk,51.18158038,4.601584638,8
2493,Sint-Antoniuskerk,50.80733264,4.606657426,8
2498,Sint-Jozefkerk,51.09779137,4.340148056,8
3,Sint-Martinuskerk,51.2134487,4.2573832,7
84,Sint-Catharinakerk,51.33136987,4.365398996,7
155,Sint-Martinuskerk,50.91662244,5.250777269,7
167,Sint-Lambertuskerk,51.09208775,4.305175941,7
175,Heilig Kruiskerk,51.15481878,3.825041516,7
189,Sint-Gertrudiskerk,51.04842674,4.129815091,7
192,Sint-Katharinakerk,51.08912112,4.33126302,7
302,Sint-Servaaskerk,50.90815927,5.41962949,7
373,0,51.05307165,4.355607526,7
477,Kapel Onze-Lieve-Vrouw van Gaverland,51.22590414,4.267328365,7
572,Sint-Jobkerk,51.1734809,4.070397954,7
735,0,51.18658842,4.203895838,7
789,Sint-Clemenskerk,50.96164647,4.456336133,7
795,Onze-Lieve-Vrouw-Tenhemelopnemingskerk,50.94770948,5.2532467,7
838,Onze-Lieve-Vrouw en Sint-Petruskerk,51.13299316,3.862188711,7
916,Kleuterschool,50.97526417,5.386725536,7
977,WZC Sint-Vincentius,51.13509885,3.862758457,7
1159,Sint-Rochuskapel,50.90251485,5.410906008,7
1172,Sint-Servatiuskerk,51.37156481,4.994843191,7
1357,Sint-Hubertuskerk,50.96003483,4.497865462,7
1425,0,51.27467271,4.976205663,7
1513,Heilige Geest,51.02335634,4.580672624,7
1529,Sint-Catharinakerk,51.07011536,4.532508391,7
1571,Sint-Martinuskerk,50.94706331,4.098825019,7
1572,Sint-Niklaaskerk,51.06430898,4.361675414,7
1618,Sint-Baafskerk,51.14712577,3.821451634,7
1684,Onze-Lieve-Vrouw-Hemelvaartkerk,51.20087068,2.976373375,7
1779,Heilig Hartkerk,50.93606983,5.41971879,7
1843,Onze-Lieve-Vrouwekerk,51.12762603,4.291054662,7
1844,Kapel Onze-Lieve-Vrouw van Steenbergen,50.82199367,4.663606291,7
1866,Sint-Donaaskerk,51.33173656,3.207395149,7
1931,Onze-Lieve-Vrouw Hemelvaartkerk,50.97181831,4.06676099,7
2129,Vrijetijdshuis De Moer,51.30352027,4.881406353,7
2133,Onze-Lieve-Vrouw van Lourdeskerk,51.30231409,4.560364515,7
2143,Kapel Sint-Jozef-Ambachtsman,51.05655821,4.364480665,7
2185,Sint-Jan Evangelistkerk,51.22311159,4.258449711,7
2212,Sint-Eligiuskerk,50.97813184,5.353496232,7
2392,WZC Denderrust,50.97359546,4.065536576,7
2455,Onze-Lieve-Vrouw van Troost ter Warande,51.15645703,3.836101118,7
2492,Sint-Veronakapel,50.8557961,4.611564236,7
29,Sint-Dionysiuskerk,51.35389706,4.397389462,6
47,Sint-Martinuskerk,50.96969047,3.861974719,6
58,Sint-Eventius,50.97498725,5.469420098,6
73,0,50.89525392,4.043479832,6
85,Onze-Lieve-Vrouwekerk,51.00057114,4.12926689,6
152,Sint-Gorikskerk,50.90219989,4.005687305,6
157,Sint-Pieterskerk,51.07666363,4.276060988,6
238,Sint-Quintinuskerk,50.99143017,5.367973361,6
296,Sint-Margarethakerk,51.10641621,4.298056927,6
301,d Oude Kapel,51.04547261,3.943889676,6
311,Onze-Lieve-Vrouw en Sint-Jobkerk,51.32004332,5.085885275,6
332,Sint-Jan Onthoofdingkerk,51.01394655,3.928273259,6
335,Sint-Martinuskerk,51.00139379,4.084052073,6
339,Sint-Martinuskerk,50.92538606,3.790213279,6
340,0,50.95633839,3.830334669,6
448,0,50.90746067,5.424320614,6
451,Sint-Corneliuskerk,51.1746603,2.937110951,6
461,Sint-Denijskerk,51.03667034,3.918620083,6
472,Onze-Lieve-Vrouw-Hemelvaartkerk,51.009379,4.061580663,6
501,Sint-Gangulphuskerk,50.94545082,3.80373573,6
552,Sint-Martinuskerk,50.9334663,3.976677384,6
570,0,50.90538261,3.143655588,6
584,Sint-Barbarakerk,51.17432598,3.785782061,6
604,Sint-Martinuskerk,50.95744385,3.902092559,6
619,Sint-Martinuskerk,50.98101796,3.872503035,6
691,Sint-Jozefkerk,51.0602495,4.280667491,6
766,Sint-Christoffelkerk,50.93733956,3.784970849,6
782,Sint-Eligiuskerk,51.10715637,3.900057814,6
847,Sint-Jan Baptist en Sint-Amanduskerk,51.06655621,4.40711922,6
866,Sint-Pieterskerk,50.95146105,4.709387965,6
901,Sint-Henricuskerk,50.92099084,3.116585474,6
1015,Sint-Adrianuskerk,51.39169296,5.016244035,6
1122,Sint-Stefaanskerk,51.10360295,4.269186013,6
1127,Sint-Jan de Evangelistkerk,51.12518882,4.272186656,6
1152,Onze-Lieve-Vrouwekerk,50.9405483,3.059790405,6
1194,no,50.89422481,5.266505255,6
1209,Sint-Jobkerk,51.28953162,5.053141814,6
1366,Onze-Lieve-Vrouw-ten-Traankerk,51.07398656,4.294585338,6
1370,Sint-Niklaaskerk,50.93338786,4.497067366,6
1403,Sint-Willibrorduskerk,51.3588552,4.864258413,6
1435,Zuster van de Heilige Jozef,51.18223977,3.190498943,6
1452,Onze-Lieve-Vrouw-van-de-Rozenkranskerk,51.39694726,4.938202438,6
1489,Sint-Lambertuskerk,51.3192192,4.856189386,6
1502,0,51.35500732,5.059946896,6
1515,Sint-Jozefkerk,50.94598185,4.583074722,6
1603,Onze-Lieve-Vrouw Onbevlekt van Lourdeskapel,50.83501493,4.793160766,6
1662,0,50.9097371,3.990444779,6
1692,Sint Idesbald,50.95780918,3.097497811,6
1743,Onze-Lieve-Vrouw-en-Sint-Leodegariuskerk,51.09986983,4.235364043,6
1939,Sint-Jozefkerk,50.91979899,3.987942624,6
1946,Onze-Lieve-Vrouw Hemelvaartkerk,51.04681009,3.946198011,6
1965,Parochiecentrum Christus Koning,50.99846068,3.889409337,6
1977,Sint-Denijskerk,50.98905103,3.929957749,6
2004,Montfortcollege,50.94257067,4.739330732,6
2131,Onze-Lieve-Vrouw der Stilte,51.38341977,4.899594064,6
2136,Afscheidsruimte,50.93644995,3.097414557,6
2209,Sint-Jan Baptist de la Sallekerk,50.97122085,5.448499998,6
2213,0,50.95307808,5.421592822,6
2219,Sint-Jozefskerk,50.99414866,5.340170217,6
2283,0,50.99308309,5.363332724,6
2297,Sint-Amanduskerk,50.97828318,3.082062058,6
2401,Sint-Odulf,51.04855473,4.06176637,6
2432,Sint-Onkomenakerk,50.94455075,3.866084777,6
2457,Sint-Pauluskerk,51.09457044,3.912066755,6
54,Sint-Barbarakerk,50.99842308,5.564253391,5
57,Sint-Jozefkerk,50.95310615,5.559324786,5
62,Sint-Ursmaruskerk,51.03863311,4.165223827,5
156,Sint-Jobkerk,50.98833706,5.274629061,5
165,Sint-Pietersbandenkerk,51.01835296,3.957935776,5
206,Sint-Jozefkerk,50.93394697,5.521982199,5
259,Sint-Guilielmuskerk,51.18147895,2.839875425,5
313,Sint-Martinuskerk,51.00099539,4.583623021,5
327,Sint-Aldegondiskerk,50.99641016,4.069234641,5
398,Kerk Maagd der Armen,50.98741264,5.411313734,5
418,Sint-Leonarduskerk,51.04442163,4.326253642,5
425,Sint-Bernarduskerk,50.75475106,4.568007077,5
458,Sint-Martinuskerk,50.77260359,4.538156228,5
541,Onze-Lieve-Vrouw-Boodschapskerk,50.94963679,5.230776515,5
549,Sint-Bavokerk,50.92305033,3.971507315,5
600,Sint-Albertuskerk,51.00936664,5.513400025,5
682,Heilige Kruisverheffingkerk,50.92695138,3.880564122,5
695,Sint-Augustinuskerk,50.83119574,3.312932293,5
717,Abdij van Affligem,50.92442573,4.113939085,5
739,0,50.88070427,4.843154494,5
768,Sint-Jozefkerk,51.06718031,4.074086044,5
799,Sint-Margrietkerk,51.11457887,4.138362767,5
873,Heilige Familiekapel,51.26287689,5.023234836,5
898,Kapel van Pontfort,51.26142209,5.044554832,5
993,Onze-Lieve-Vrouwkerk,51.17543635,2.877514124,5
1019,Sint-Martinuskerk,50.77357876,5.181269526,5
1079,Kapel Onze Lieve Vrouw Zeven Weeën,51.11344952,4.142500013,5
1135,Sint-Andreaskerk,50.8467381,5.154022297,5
1143,Onze-Lieve-Vrouw-Tenhemelopnemingskerk,50.83289142,5.164560308,5
1191,Sint-Odulphuskerk,50.8224467,5.127417328,5
1206,Sint-Aldegondiskerk,50.87554835,5.307464431,5
1220,Sint-Martinuskerk,50.94756473,4.756138376,5
1264,0,50.82384673,3.29892235,5
1323,Sint-Antonius Abtkerk,50.98119441,4.572374793,5
1337,Sint-Catharinakerk,50.92541408,4.807222553,5
1624,Sint-Martinuskerk,50.88123848,4.842182781,5
1633,Onze-Lieve-Vrouwekerk,51.12139308,3.926163386,5
1699,Sint-Bernarduskerk,50.89675199,4.82503527,5
1846,Sint-Rita,50.84074053,3.292979514,5
1945,Sint-Michielskerk,50.92062917,3.860032382,5
1979,0,50.92546758,3.883649142,5
1981,Sint-Pharaïldiskerk,50.96619817,3.927724913,5
1990,Sint-Fledericuskerk,50.93174282,3.896328881,5
2000,Sint-Jozefkerk,51.0385421,4.588976111,5
2030,0,50.77676948,4.52491998,5
2119,Onze-Lieve-Vrouwekerk,51.18438226,3.003890908,5
2173,Heilig Hartkerk,51.1259616,4.199581295,5
2180,Sint-Egidiuskerk,51.21826893,4.127958752,5
2194,0,50.79075105,3.250085161,5
2262,Onze-Lieve-Vrouwkerk,51.04816883,4.036351832,5
2333,Onze-Lieve-Vrouw ten Hemel Opgenomenkerk,51.21102954,4.597662861,5
2350,Onze-Lieve-Vrouw Geboortekerk,51.26715507,4.867617815,5
2371,Sint-Willibrorduskerk,51.24055613,4.966406252,5
2426,Onze-Lieve-Vrouw-Onbevlekt-Ontvangenkerk,50.78162886,5.21336998,5
2447,Abdij van Affligem,50.92449475,4.113253176,5
2450,Kapel OLV Van Bijstand,50.89693327,4.012375709,5
2483,Sint-Catharinakerk,51.16825855,3.857564395,5
26,Sint-Martinuskerk,51.26734664,5.084976873,4
30,Heilig Hartkerk,51.20137756,3.938282084,4
37,0,50.85514726,3.308393904,4
164,0,51.33720152,5.100078879,4
186,Onze-Lieve-Vrouw-van-Banneuxkerk,51.02358365,5.480174055,4
210,Sint-Brixiuskerk,50.95654522,4.32702848,4
221,Onze-Lieve-Vrouw-Hemelvaartkerk,51.14889887,3.965927961,4
226,Sint-Amanduskerk,50.84323337,3.204017587,4
269,Sint-Jan Evangelistkerk,50.89208964,4.099255972,4
308,Sint-Pietersbandenkerk,50.94039112,3.955106437,4
338,Sint-Denijskerk,50.9603637,3.952076336,4
399,Sint-Mauritiuskerk,51.18913349,3.142898606,4
400,Sint-Bernardusabdij,51.09397662,4.226184989,4
401,Sint-Jacobuskerk,51.18150395,4.241057134,4
402,Sint-Michielskerk,50.77050273,4.603004705,4
411,Sint-Laurentiuskerk,51.20026653,3.812131128,4
449,Sint-Martinuskerk,50.96616275,3.978278184,4
485,Sint-Johannes en Amanduskerk,51.06596948,4.244562258,4
491,Onze-Lieve-Vrouwekerk,50.93198265,5.571477643,4
504,Sint-Rochuskerk,51.11431189,4.124888912,4
514,Onze-Lieve-Vrouw Hulp der Christenenkerk,51.07589556,4.095952145,4
524,Kapel Sint-Teresiacollege,51.14630994,3.955641819,4
533,Heilig Hartkerk,50.76098328,4.200198548,4
548,BuSO Ter Strepe,51.18183952,2.815423587,4
576,Onze Lieve Vrouw van Bijstandkerk,51.20780009,4.238785417,4
606,Sint-Amanduskerk,50.81311728,3.333357364,4
607,Sint-Amanduskerk,50.77754255,3.279852796,4
608,Sint-Baafskerk,50.97425424,3.956429734,4
641,Onze-Lieve-Vrouw Geboortekerk,50.95058936,5.208229065,4
644,Sint-Margarethakerk,50.95484806,4.141792616,4
680,Sint-Stephanuskerk,51.04317113,4.26286799,4
693,Sint-Willibrorduskerk,51.18467882,2.820549212,4
813,Sint-Franciscus van Saleskerk,51.09687331,4.555128425,4
815,Sint-Petruskerk,51.11235402,4.175431022,4
841,Sint-Franciscuskerk,51.14404945,4.065991175,4
874,Sint-Pieterskapel,51.26412906,5.076243265,4
907,Kapel Ten Eikenen,51.00302852,5.364056654,4
967,Kapel Heilige Antonius van Padua,51.17108145,3.91948174,4
969,0,51.18734187,3.992571066,4
974,Sint-Antonius van Paduakerk,51.1984365,3.794866748,4
978,Kruiskapel,51.15972795,3.978894347,4
979,Onze-Lieve-Vrouw Onbevlekt Ontvangenkerk,51.18477901,3.987046356,4
984,0,51.20175552,3.150453225,4
987,0,51.20223056,3.148526778,4
1094,0,51.12569567,4.202956281,4
1115,Sint-Jozefkapel,51.11064211,4.174350113,4
1116,Heidekapel,51.1224035,4.09879103,4
1138,Sint-Joriskerk,50.87158856,5.272033624,4
1140,Sint-Jan-de-Doperkerk,50.8605447,5.164923439,4
1154,Kapel Sint-Joris,50.86811178,5.275707529,4
1173,Sint-Jozefkerk,51.33745024,5.099745249,4
1175,Onze-Lieve-Vrouw-van-de-Ossenwegkapel,50.84843643,5.136366227,4
1178,Sint-Pieterskerk,50.85861659,5.389770701,4
1193,Sint-Laurentiuskerk,50.87469669,5.239472105,4
1235,Sint-Niklaaskerk,51.24212943,3.248945727,4
1248,Sint-Jozef,50.84986145,3.31291266,4
1268,Kapel Onze-Lieve-Vrouw Hemelvaart,51.35546372,4.82525996,4
1310,0,51.21245962,3.287262878,4
1347,Sint-Theresiacollege Kapelle-op-den-Bos (STK),51.00699893,4.355323648,4
1369,Sint-Walburgakerk,50.93173564,4.133547205,4
1372,Sint-Niklaaskerk,51.01323301,4.355015666,4
1379,Sint-Joannes Vianneykerk,51.00032017,4.150753839,4
1386,0,51.30597685,5.100530101,4
1462,Onze-Lieve-Vrouw van Altijddurende Bijstandkerk,51.32230084,4.833518815,4
1564,Sint-Jan Baptistkerk,50.97523651,5.224252643,4
1567,Sint-Martinuskerk,51.06246356,4.153419321,4
1642,Sint-Jan-de-Doperkerk,51.03401235,4.359309475,4
1661,Sint-Jozefkerk,51.04819694,4.16726367,4
1710,Sint-Annakerk,51.10134787,4.193081122,4
1748,Onze-Lieve-Vrouwekerk,51.12405075,4.213876269,4
1756,Sint-Michielskerk,50.85002711,3.28755916,4
1770,Sint-Antonius Abtkerk,51.1726332,3.940432527,4
1781,Sint-Vincentius a Paulokerk,51.07962547,4.199836091,4
1784,Onze-Lieve-Vrouw-Bezoekingkerk,50.90176935,4.137452341,4
1806,Kasteel van Male,51.20925565,3.288371217,4
1814,Sint-Augustinuskerk,50.73895138,4.179262815,4
1816,Sint-Annakerk,50.89518676,4.07340353,4
1836,0,51.00007691,4.150489493,4
1872,Villa Karmel,51.31323856,3.137969257,4
1873,Sint-Antonius Abtkerk,51.31178502,3.132796332,4
1874,Sint-Rochuskerk,51.31563423,3.131505161,4
2001,Kloosterkerk,51.06517918,4.578461077,4
2011,0,51.06196378,4.580393764,4
2013,Onze-Lieve-Vrouwkerk,51.06264478,4.580103967,4
2049,Sint-Michielskerk,51.40827602,4.994658152,4
2068,Sint-Genovevakerk,50.82215879,5.247430359,4
2083,Sint-Pietersbandenkerk,50.89805927,5.224176952,4
2148,Kapel Priester Poppe,51.06368062,4.156287704,4
2156,Klooster-rustoord Sint-Jan,51.1874226,3.809953964,4
2292,Sint-Jan de Doperkerk,50.93150883,3.19179877,4
2440,Sint-Michielskerk,50.90757586,4.10904286,4
2448,Sint-Margarethakerk,51.24157973,4.897052606,4
13,Sint-Eligiuskerk,51.16929065,3.122604832,3
21,Sint-Michielskerk,51.26550995,3.156425417,3
32,Sint-Martinuskerk,50.9199197,3.929134481,3
63,Sint-Martinuskerk,50.98514013,4.054096607,3
69,Sint-Kwintenkerk,50.9737336,4.306145542,3
77,0,50.87473326,3.989018348,3
160,Sint-Theresia van het Kind Jezuskerk,50.80254645,3.152358977,3
166,Onze-Lieve-Vrouw-van-de-Rozenkranskerk Westrode,50.99213233,4.323658474,3
174,Sint-Corneliuskerk,50.7786417,3.22986063,3
209,Onze-Lieve-Vrouw-Hemelvaartkerk,51.03139879,4.191962977,3
211,Heilig Kruiskerk,50.98380542,4.144607187,3
222,0,50.86415283,3.272953124,3
266,Christus Koningkerk,51.12932536,4.22987203,3
292,Sint-Bavokerk,50.79427704,3.185689135,3
319,Sint-Martinuskerk,50.77902811,5.133545597,3
363,Onze-Lieve-Vrouw-ten-Hemelopgenomenkerk,51.06030258,4.189506042,3
386,Sint-Niklaaskerk,51.01534121,4.202862086,3
417,Sint-Jozefkerk,51.02706842,4.294019086,3
429,Sint-Katrienkerk,50.87194349,3.24095081,3
432,Sint-Martinuskerk,50.89001346,3.992263591,3
453,Sint-Aldegondiskerk,51.00862602,5.585623963,3
456,Sint-Salvatorkerk,50.97967948,4.079921567,3
505,Sint-Paulus-Bekeringkerk,50.93426032,3.947247084,3
510,Godshuizen Sint-Janshospitaal,51.25025302,3.281998805,3
521,Sint-Genovevakerk,50.995529,4.267843481,3
601,Sint-Theresiakerk,51.00607352,5.583994873,3
625,Sint-Martinus- en Sint-Christoffelkerk,50.84059873,3.16379556,3
650,Sint-Niklaaskerk,50.78602732,3.162614812,3
657,Sint-Amanduskerk,50.87376698,4.04720052,3
665,Sint-Amandskerk,51.05641143,4.201696763,3
686,Kerkskensveldweg,50.88938425,3.988703711,3
689,Sint-Amanduskerk,50.88158369,3.954793931,3
700,Heilig Kruiskerk,51.21911286,4.195306107,3
706,Abbatiale Sint-Andriesbasiliek,51.15968014,3.159173504,3
719,Sint-Niklaaskerk,51.15528457,2.847760769,3
773,0,50.8751896,4.014363454,3
778,Sint-Blasiuskerk,51.18258869,3.093602169,3
877,Kapel van Onze-Lieve-Vrouw ter Sneeuw,51.25796507,5.099598378,3
988,Kasteel Ter Loo,51.1441443,3.160574989,3
995,Sint-Theresiakapel,51.18366649,2.806803277,3
1048,Sint-Bartholomeuskerk,50.80705955,5.107134177,3
1108,0,51.09297734,4.138295598,3
1113,0,51.21916955,4.193458824,3
1158,Sint-Pieterskerk,50.86452513,5.193999529,3
1208,Sint-Martinuskerk,50.80977905,5.102236406,3
1238,0,50.79303859,3.188700136,3
1272,Sint-Hilariuskerk,50.80928087,3.18397764,3
1282,Priorijkerk,51.16076469,3.176717435,3
1345,Sint-Rumolduskerk,51.4070328,4.89370668,3
1350,Sint-Pieters-Bandenkerk,50.94284175,4.172240252,3
1352,Sint-Martinuskerk,51.01461736,4.335204811,3
1373,Sint-Christoffelkerk,51.00163907,4.302168322,3
1384,Pastorie Onze-Lieve-Vrouwparochie,51.2494552,3.282089818,3
1427,Sint-Martinuskerk,51.15515665,3.195589574,3
1430,Christus Koningkerk,50.96194087,3.052457544,3
1437,Basiliek Onze-Lieve-Vrouw van Kortenbos,50.85747107,5.239534049,3
1521,Sint-Jan Baptistkerk,51.41220511,5.015356053,3
1525,0,50.87723814,4.097016393,3
1533,Kerk Onbevlekt Hart van Maria,50.81735967,3.174790303,3
1569,Onze-Lieve-Vrouw Hemelvaartkerk,50.97908593,4.350680876,3
1573,Sint-Quirinuskerk,50.99624896,5.249488003,3
1580,Onze-Lieve-Vrouw Middelareskerk,50.96526831,4.15537938,3
1589,Sint-Gerardus Majellakerk,50.99849774,4.17649781,3
1592,Sint-Theodarduskerk,50.73984994,4.1350167,3
1605,Sint-Amanduskerk,50.87168505,4.018598155,3
1626,Verrijzeniskerk,50.7906712,3.199452072,3
1631,Sint-Medarus en Gildarduskerk,50.97369483,4.279580086,3
1655,Sint-Amanduskerk,50.88284997,4.082545787,3
1666,Abdij Roosenberg,51.11928569,4.078502081,3
1719,Heilig Hartkerk,51.09207075,4.124051192,3
1753,Sint-Rumolduskerk,50.96709355,4.379986737,3
1757,Sint-Amanduskerk,50.77964116,4.17099309,3
1782,Onze-Lieve-Vrouwekerk,51.23538991,3.151689437,3
1798,Sint-Hubertuskerk,50.91864457,4.157443912,3
1804,De Vleugel,50.85650013,3.322646771,3
1862,0,51.29415767,3.199048626,3
1864,Stella Mariskapel,51.32808552,3.182423362,3
1870,Heilige-Kruisverheffingskerk,51.29807358,3.082238696,3
1871,Sint-Amanduskerk,51.30367336,3.142431478,3
1922,Onze-Lieve-Vrouw Hemelvaartkerk,51.24944461,3.282682467,3
1951,Sint-Ludgeruskerk,51.06840829,4.039078121,3
1952,Sint-Lambertuskerk,50.93577861,3.930697991,3
1953,Sint-Machariuskerk,50.95365628,3.931527143,3
2015,Sint-Niklaaskerk,51.05644448,4.629809732,3
2021,Sint-Pietersbandenkerk,50.78097234,4.199283441,3
2035,Sint-Martinuskerk,50.75907907,4.159783782,3
2078,Saffraanberg,50.78389638,5.235076485,3
2080,0,50.83419699,5.101619637,3
2111,Kerk Onbevlekt Hart van Maria,50.81707828,3.174507303,3
2141,Sint-Leonarduskerk,50.83327145,5.103033098,3
2153,0,50.74704238,4.634477517,3
2203,Heilige Maagd der Armenkerk,50.76217928,3.179674285,3
2239,0,50.98233582,3.068252829,3
2241,Sint-Catharinakerk,50.98848333,3.162801004,3
2328,Onze-Lieve-Vrouwkerk,51.2242971,4.920045782,3
2339,Kapel Onze-Lieve-Vrouw in t Zand,51.2240585,4.907685584,3
2374,Sint-Jan Evangelistkerk,51.09471913,4.610185429,3
2476,Onze-Lieve-Vrouwkerk,50.74640643,4.154658401,3
2479,Sint-Pieter,50.8639568,3.272781536,3
2480,Sint-Salvatorkerk,50.85802003,3.312834125,3
2481,Sint-Niklaaskerk,50.75241829,4.615217781,3
2499,Sint-Niklaaskerk,50.87061318,4.082490265,3
2501,Onze-Lieve-Vrouw ter Noodkerk,50.87734125,4.065127577,3
48,Klooster,50.9412731,5.16303843,2
50,Onze-Lieve-Vrouw-van-Zeven-Weeën-en-Sint-Jozefkerk,51.00494618,4.015566979,2
56,Kapel van Onze-Lieve-Vrouw van Zeven Weeën,51.06502877,4.028028884,2
64,Sint-Stefanuskerk,50.92689234,3.90871436,2
72,Kapel Sint-Martinus,50.73815657,5.255761969,2
82,Sint-Martinuskerk,50.78103677,5.289412181,2
127,Sint-Jan Baptistkerk,51.21445755,3.071248434,2
135,Sint-Jan Baptistkerk,50.80322008,3.110657335,2
143,Onze-Lieve-Vrouw Onbevlekt Ontvangenkerk,50.98409753,4.223106085,2
197,Sint-Stephanus en Sint-Theodoricuskerk,50.83897373,3.403922709,2
252,Sint-Jan Baptistkerk,50.86823301,3.145389817,2
260,Sint-Blasiuskerk,50.88648398,3.237863031,2
318,Sint-Petruskerk,50.75037151,5.135334648,2
328,Kapel van Oetersloven,50.82764247,5.301784725,2
395,Sint-Vedastuskerk,50.79450668,3.122720873,2
428,Onze-Lieve-Vrouw Maagd der Armenkerk,50.90349589,5.4732664,2
462,Sint-Antonius Abtkerk,50.76854945,3.262743421,2
464,Sint-Martinuskerk,50.94063335,5.166837477,2
468,Sint-Remigiuskerk,50.82025761,4.810681904,2
539,Onze-Lieve-Vrouw Opdrachtkerk,50.85538733,4.055976056,2
585,Onze-Lieve-Vrouwekapel,50.89766312,5.512206154,2
595,Bareldonkkapel,51.04113,3.984646139,2
598,Sint-Bavo-en-Sint-Machutuskerk,51.23624799,3.110834854,2
623,Sint-Maria-Bernardakerk,50.79783928,3.36157202,2
629,Sint-Jozefkerk,50.89669168,5.506409433,2
643,Sint-Pauluskerk,50.96942967,4.188987891,2
645,0,51.09447249,4.075395784,2
646,Sint-Eligiuskerk,51.12647539,3.157519329,2
655,Sint-Vedastuskerk,51.16607761,3.070218308,2
727,Heilig-Hartkerk,51.0853912,4.056427301,2
758,Sint-Amanduskerk,50.87522486,3.311852422,2
780,Sint-Hilariuskerk,50.83880716,4.83206409,2
787,Onze-Lieve-Vrouwekerk,51.10490598,3.160109716,2
816,Heilig-Hartkerk,50.91858383,3.210162884,2
830,Heilig Hartkerk,50.94112627,3.248200254,2
836,Sint-Martinuskerk,50.97862879,3.197990412,2
871,Middenschool,51.02609236,3.139017393,2
905,Sint-Martinuskerk,51.00226557,3.209364701,2
913,Onze-Lieve-Vrouw Hemelvaartkerk,50.98534959,5.190418439,2
921,Sint-Pieterskerk,50.92224047,3.231167875,2
965,Klooster van Maria Reparatrix,51.15698723,4.040361181,2
972,0,51.09456435,4.076164597,2
975,Sint-Jacobuskerk,51.20702764,4.079022291,2
1001,Sint-Jacobus-de-Meerderekerk,51.02749006,3.14166121,2
1016,Sint-Eligiuskerk,51.09577326,3.206149206,2
1028,Sint-Quintinuskerk,50.76658619,5.263499081,2
1037,Sint-Antoniuskapel,51.09565257,4.088840398,2
1038,Sint-Jan Baptistkerk,50.97489382,3.014822964,2
1049,Sint-Martinuskerk,50.78257725,5.265401279,2
1057,Sint-Pieterskerk,50.7464617,5.233618849,2
1071,Sint-Annakerk,50.74093746,5.260371903,2
1093,Klooster Der Zusters Van De Heilige Vincentius,50.99527269,3.095413106,2
1112,0,51.09876344,4.137876471,2
1149,Sint-Vedastuskerk,50.81168688,5.28482736,2
1153,Sint-Niklaas en -Dionysiuskerk,50.80457748,5.310616318,2
1157,Onze-Lieve-Vrouw Ten Hemelopnemingskerk,50.76304516,5.305538139,2
1170,Sint-Gilliskapel,50.76736377,5.075628435,2
1180,Sint-Rochuskerk,50.84243911,5.306346079,2
1182,Sint-Agathakerk,50.81764501,5.310779371,2
1186,Heilige Maria Magdalenakerk,50.77790529,5.080251318,2
1192,Sint-Saturninuskerk,50.75552637,5.215590247,2
1196,Onze-Lieve-Vrouw van Klein-Jeukkapel,50.73198759,5.191314027,2
1198,Sint-Jan Baptistkerk,50.77205989,5.256107073,2
1204,Onze-Lieve-Vrouw-Boodschapskerk,50.77083062,5.275459644,2
1221,Sint-Jan-de-Doperkerk,50.94474298,4.643663137,2
1251,0,50.85935352,3.37835224,2
1256,Woonzorgcentrum Heilige Familie,50.852108,3.356112374,2
1283,0,51.10390747,3.272120467,2
1284,Parochiekerk Sint-Petrus,50.74176571,5.181060574,2
1286,Sint-Blasiuskerk,51.11174282,3.2216257,2
1290,Sint-Jozefskerk,51.00082339,3.034918205,2
1297,Sint-Jozefkerk,50.78912065,3.132983605,2
1298,Sint Martinuskerk,50.89158111,3.061797581,2
1300,Sint Franciscus,50.79664155,3.116733841,2
1309,Heilig Maria Moeder Gods-kerk,51.12739443,3.32483674,2
1313,Sint-Jacob de Meerderekerk,50.99682921,3.096262549,2
1327,0,50.9644803,4.10900397,2
1334,Kapel Onze-Lieve-Vrouw ter Ruste,50.85089011,3.353844877,2
1342,Sint-Amanduskerk,51.14268284,3.341392368,2
1365,Heilige Familiekerk,51.09164664,4.155393594,2
1367,Sint-Jozefkerk,50.95501756,4.182798126,2
1390,Sint-Janskerk,51.10518023,3.273552347,2
1394,Sint-Antonius van Paduakerk,50.96207029,3.242251353,2
1398,Maria Rustoord,50.92130515,3.248885349,2
1406,Sint-Godelievekerk,51.16221409,3.262352706,2
1409,Sint-Lambertuskerk,51.16964484,3.339816226,2
1412,Onze-Lieve-Vrouw-Geboorte en Sint-Philippuskerk,51.23129777,3.307952119,2
1417,Sint-Pieterskerk,51.15505066,3.235527403,2
1458,Sint-Tillokerk,50.91695877,3.214749083,2
1503,Sint-Henricuskerk,51.02709425,3.095264397,2
1509,Sint-Benedictuskerk,51.30472825,4.290244795,2
1539,Onze-Lieve-Vrouw Onbevlekt Ontvangenkerk,50.82161039,3.376831429,2
1540,Sint-Eligiuskerk,50.87634756,3.179616121,2
1594,Sint-Audomaruskerk,50.90026942,3.021260509,2
1600,Sint-Pieterskerk,50.88175009,3.295676539,2
1615,Sint-Antonius-Abtkerk,50.80910735,4.794340983,2
1619,0,50.83861974,3.403529294,2
1628,Sint-Godelievekerk,50.89275474,3.11469366,2
1640,Sint-Jan Baptistkerk,50.95618719,5.176526603,2
1643,0,50.81809264,3.354620951,2
1646,Sint-Niklaaskerk,50.88937954,3.936688039,2
1680,Sint-Pieterskerk,50.77558536,4.119184803,2
1688,0,50.87548732,3.345773062,2
1695,Mariakapel,51.01489557,4.228030881,2
1698,Sint-Columbakerk,50.8537491,3.354908396,2
1701,Sint-Jozef-Arbeiderkerk,50.81804734,3.354224489,2
1718,Sint-Laurentiuskerk,51.14320654,3.135970574,2
1727,Sint-Amanduskerk,51.027682,4.220838059,2
1733,Sint-Antonius van Paduakerk,50.86483155,3.979928891,2
1758,Sint-Pietersbandenkerk,51.09824848,4.138200376,2
1764,Tinelkerkhof,51.157356,4.042047405,2
1772,Onze-Lieve-Vrouw-ten-Hemelopnemingkerk,50.83050126,4.835501304,2
1777,Heilige Familiekerk,50.90211438,3.193909742,2
1780,Sint-Martinuskerk,50.76379442,4.120262996,2
1815,Oude Sint-Stephanus en Sint-Theodoricuskerk,50.83572088,3.402965645,2
1852,0,50.92174407,3.199103736,2
1853,Sint-Quintinuskerk,51.27742451,3.295427604,2
1860,Sint-Pietersbandenkerk,51.27470922,3.228096602,2
1861,Sint-Leo de Grotekerk,51.30973104,3.197436941,2
1869,Sint-Bartholomeuskerk,51.27400325,3.098838489,2
1916,Woon- en zorgcentrum Maria Middelares,50.89243462,3.066711553,2
1918,0,50.80074869,3.125352081,2
1961,0,50.9844221,4.050875141,2
1971,Sint-Gertrudiskerk,51.00609856,3.974834542,2
1973,Sint-Martinuskerk,51.02499962,4.003382665,2
1982,Onze-Lieve-Vrouw van Zeven Weeënkerk,51.06520104,4.026798155,2
1988,Sint-Martinuskerk,50.91383635,3.920597998,2
2017,Sint-Laurentiuskerk,50.78803455,4.198053902,2
2055,0,50.93074226,3.218776741,2
2070,Sint-Trudokerk,50.75243849,5.17627728,2
2081,Onze-Lieve-Vrouw Onbevlekt Ontvangenkerk,50.90698306,5.202152257,2
2090,Sint-Antoniuskerk,50.88251033,4.585725673,2
2092,Klooster t Keyhof,50.78686772,4.616690335,2
2145,Sint-Amanduskerk,51.02012195,4.243330842,2
2186,Sint-Martinuskerk,51.20129736,3.322354918,2
2202,Sint-Jan de Doperkerk,50.87553611,3.346348996,2
2234,Sint-Baafskerk,50.93136237,3.012513444,2
2254,Sint-Jozefkerk,51.21514686,3.38232296,2
2260,0,50.91108675,3.229516289,2
2267,0,50.92190033,3.196390144,2
2274,0,50.92241486,3.204185334,2
2332,Sint Pieterskerk,50.76774052,5.090378842,2
2340,Sint-Dionysiuskerk,51.24584383,3.339628006,2
2343,Sint-Amandskerk,50.92001867,3.254986154,2
2356,Sint-Jozefkerk,50.80404788,5.262219938,2
2393,0,50.98403911,4.05003944,2
2394,Sint-Jozefkapel,50.9959491,3.95307686,2
2408,Sint-Martinuskerk,51.20124517,3.322645786,2
2425,Sint-Joriskerk,50.73418059,5.209247381,2
2443,Sint-Sebastiaankerk,50.74146558,5.139581686,2
7,Sint-Gaugericuskerk,50.84369274,4.075417648,1
12,Sint-Blasiuskerk,51.25489367,3.055741987,1
23,0,51.11274523,3.091891551,1
68,Onze-Lieve-Vrouwkerk,50.94091607,4.902532777,1
109,Sint-Corneliuskerk,51.26036045,4.14681547,1
113,Rust- en verzorgingstehuis Sint-Jozef,50.89082647,5.521848297,1
133,Kapel van Onze-Lieve-Vrouw van Lubbeek,50.88197112,4.85443911,1
159,Parochiekerk Sint-Jozef en Sint-Antonius van Padua,51.06646856,3.991224278,1
188,Sint-Gilliskerk,50.81852364,4.886512001,1
190,Onbevlekt Hart van Mariakerk,50.92202325,4.184662509,1
244,Sint-Clemenskerk,51.24244665,3.025418506,1
263,Onze-Lieve-Vrouwekerk,51.10628292,4.08596433,1
270,Sint-Petruskerk,50.8528784,3.126197268,1
275,Sint-Vincentiuskerk,50.74096704,4.250151687,1
350,Don Boscokerk,50.74725799,4.265316401,1
351,Sint-Pieter en Pauwelkerk,50.81716417,4.625721699,1
367,Sint-Catharinakapel,50.78733353,4.874062493,1
390,Sint-Nicolaas van Tolentijnkerk,51.01568955,5.600060087,1
394,Sint-Eligiuskerk,50.76833102,3.397871723,1
424,Sint-Laurentiuskerk,51.25510981,4.187959537,1
440,Sint-Remigiuskerk,50.97643877,5.71458261,1
443,0,50.83326355,4.023828468,1
470,Heilig Hartkerk,51.08581465,3.958826071,1
497,Sint-Jan Baptistkerk,50.87107594,4.883672998,1
515,Sint-Joriskerk,50.7988179,4.890233532,1
519,0,50.89556989,5.636715568,1
520,Sint-Amanduskerk,50.84151705,3.99984838,1
532,0,50.8339624,4.023707807,1
543,Sint-Jan-Baptistkerk,51.11489145,4.042081043,1
546,Heilig Kruiskerk,51.20689841,4.04072244,1
550,Sint-Christoffelkerk,50.94167193,5.680849107,1
555,St.-Rochus kapel,50.87767634,4.892704868,1
556,Sint-Pieterskerk,50.83575249,4.910639818,1
566,Sint-Monulphus en Gondulphuskerk,50.960989,5.700683939,1
575,Sint-Barbarakerk,50.99407135,5.686213315,1
614,Onze-Lieve-Vrouw-Hemelvaartkerk,50.78167765,3.411708975,1
621,0,51.25905317,3.003835646,1
624,Sint-Andreaskerk,50.87736773,4.923297635,1
630,Sint-Veronuskerk,50.71363947,4.223692228,1
668,Sint-Jozef en Sint-Franciscuskerk,50.7194593,4.258431608,1
683,0,50.73728601,4.237955153,1
690,Sint-Lambertuskerk,50.79868221,5.329341395,1
705,Sint-Martinusbasiliek,50.73678746,4.23741379,1
740,Sint-Quirinuskerk,50.72854458,5.253913448,1
759,Sint-Theresiakerk,50.84821817,3.446492726,1
798,Onze-Lieve-Vrouw-Hemelvaartkerk,51.25636062,4.089706036,1
805,Sint-Michielskerk,51.00300121,4.628616673,1
812,Sint-Joriskerk,50.80341856,4.652954124,1
821,Sint-Mattheuskerk,50.89555248,4.924361465,1
822,Sint-Laurentiuskerk,50.88307918,5.606597413,1
831,Sint-Rochuskerk,50.73122639,4.243927508,1
843,Sint-Antonius Abtkerk,50.81732801,3.434864628,1
861,Église Saint-Roch,50.77141259,4.832226471,1
875,Sint-Jan-de-Doperkerk,50.97098074,4.693971848,1
920,Kapel Onze-Lieve-Vrouw van de Beukenboom,50.98669823,5.175278688,1
971,OCMW Stekene,51.20843872,4.039698725,1
980,0,51.20716748,4.039936067,1
1027,Sint-Martinuskerk,50.92975786,4.907021403,1
1082,0,51.10854454,4.08485153,1
1118,0,51.26254483,4.112937883,1
1124,0,51.25475469,4.183634965,1
1136,Sint-Jan-de-Doperkerk,50.80791217,5.331420546,1
1141,Sint-Lambertuskerk,50.73698849,5.293912346,1
1142,Sint-Martinuskerk,50.75545626,5.301850947,1
1145,Drie-Morenkerk,50.77092561,5.318318047,1
1146,Sint-Odulphuskerk,50.80122491,5.345002004,1
1165,0,50.75440345,5.078405221,1
1181,Sint-Lambertuskerk,50.8329324,5.333127213,1
1183,Sint-Norbertuskerk,50.74561779,5.077339083,1
1185,Sint-Stefanuskerk,50.73740978,5.281319751,1
1188,Sint-Lambertuskerk,50.79850406,5.329529802,1
1189,Sint-Antoniuskerk,50.93714516,4.617541248,1
1199,Sint-Lambertuskerk,50.78230697,5.332090884,1
1201,0,50.80309894,5.346333562,1
1250,Sint-Luciakerk,50.95932163,4.633553713,1
1257,Sint-Laurentiuskerk,50.74010522,3.331778024,1
1289,Sint-Jan-de-Doperkerk,50.84104806,5.337760561,1
1302,Onze-Lieve-Vrouwekerk,50.98512213,4.832367694,1
1312,0,51.01559555,5.600883768,1
1316,Sint-Engelbertuskerk,51.32655935,4.214668074,1
1318,Sint-Valentinuskerk,51.44597584,5.038920218,1
1325,Sint-Rochuskerk,50.97749691,4.818872759,1
1339,Heilige Naam Jezuskerk,51.01317216,4.710550212,1
1383,Sint-Gertrudiskerk,51.35997645,4.307222548,1
1387,Sint-Lambertuskerk,50.95080519,4.835464879,1
1392,Onze-Lieve-Vrouw-Hemelvaartkerk,51.30969324,4.262946222,1
1431,Sint-Denijskerk,50.93469329,4.860685557,1
1443,Sint-Remigiuskerk,50.97711693,4.638098088,1
1453,Sint-Bartholomeuskerk,51.02810739,3.043671991,1
1455,Sint-Laurentiuskerk,50.98469924,4.781270001,1
1481,Onze-Lieve-Vrouw van Gedurige Bijstandkerk,50.96236798,4.606472296,1
1483,Sint-Hubertuskerk,50.95623019,4.679431858,1
1499,Emmaüskerk,50.74240772,4.229955152,1
1512,Onze-Lieve-Vrouw van Altijddurende Bijstandkerk,50.96461015,4.740031658,1
1523,Sint-Annakerk,50.99565636,4.753546597,1
1530,Sint-Martinuskerk,50.85381225,4.870839119,1
1531,Onze-Lieve-Vrouw van Sterreborne,50.84889467,4.850975568,1
1582,Sint-Jan-de-Doperkerk,50.74627319,4.276666804,1
1588,Sacramentinen van Halle,50.74195173,4.230226526,1
1598,Sint-Willibrorduskerk,50.98506466,5.713305034,1
1601,Onze-Lieve-Vrouw van Bijstandkerk,51.23562435,4.043947313,1
1656,0,51.23518359,4.100229064,1
1693,Kapel Onze-Lieve-Vrouw-van-Ledeberg,50.84297395,4.083945767,1
1696,Sint-Petrus en Andreaskerk,50.96474173,5.681193538,1
1722,Sint-Antoniuskerk,50.85802101,4.923326502,1
1725,Sint-Jan Evangelistkerk,50.80190956,4.874611091,1
1726,Sint-Pietersbandenkerk,50.81141034,4.840472124,1
1739,Sint-Amanduskerk,50.72894678,5.104695291,1
1751,Sint-Amanduskerk,50.80811432,3.423354402,1
1783,Maagd der Armenkerk,50.97728345,5.693032443,1
1790,Sint-Andreaskerk,51.1194479,3.090233432,1
1797,Onze-Lieve-Vrouw van Bijstandkerk,50.99156566,4.705284133,1
1803,Sint-Ritakerk,51.25276478,3.383108102,1
1821,Sint-Michielskerk,50.84247052,4.851791667,1
1833,0,50.84808526,4.102615753,1
1835,Sint-Annakerk,50.83346337,4.862606293,1
1854,Sint-Jacob de Meerderekerk,51.29256008,3.330843297,1
1858,Heilige Drievuldigheid en Heilige Christianuskerk,51.27815465,3.356838113,1
1875,Sint-Monicakerk,51.27147396,3.035784612,1
1996,Pater Damiaanmuseum,50.98834268,4.676244565,1
1997,Kapel,50.99735637,4.715983809,1
1998,Sint-Adrianuskerk,50.98221409,4.614593707,1
2014,CC t Gasthuis,50.98780327,4.839252401,1
2053,Sint-Martinuskerk,50.72131482,5.128646442,1
2063,Sint-Gertrudiskerk,50.75585393,5.080791942,1
2089,Sint-Joriskerk,50.9081884,4.876457151,1
2096,Sint-Agathakerk,50.78725953,4.633940589,1
2099,Sint-Ermelindiskerk,50.78826492,4.838235023,1
2226,Onze-Lieve-Vrouw Hemelvaartkerk,50.83804157,4.021230284,1
2233,Internaat Zusters van Liefde,51.03093446,3.042349853,1
2237,Margareta Maria Instituut,51.02904676,3.038696158,1
2250,0,50.97428515,3.272724034,1
2255,Neogotische Ursulinnenkapel,50.84063532,5.337973325,1
2256,Sint-Jan-Baptistkerk,51.06168923,3.318055867,1
2266,Sint-Jan Baptistkerk,51.34027041,4.31473053,1
2272,Sint-Corneliuskerk,50.96569534,4.802883845,1
2273,Sint-Amanduskerk,50.94971223,3.288245983,1
2284,Sint-Joriskerk,51.08699016,3.306742537,1
2286,Onze-Lieve-Vrouwekerk,50.99461083,3.267245954,1
2290,Saint Aldegonde Church,51.03624795,3.21102444,1
2303,Sint-Petrus en Pauluskerk,51.25599933,3.415894183,1
2309,Sint-Amanduskerk,51.05815127,3.27867518,1
2341,0,50.99658549,3.254785198,1
2386,Sint-Jan de Doperkerk,50.7369526,5.085134037,1
2431,Sint-Petruskerk,50.93266626,4.820573753,1
2441,Sint-Corneliuskapel,50.83393319,4.883512018,1
2451,Sint-Pieterskerk,50.89832546,4.900780494,1
2463,0,50.85496128,3.126733459,1
2477,Residentie t Convent,50.7355762,4.234568739,1
2486,Sint-Dionysius en Sint-Genesiuskerk,50.75132974,3.368965775,1
0,Onze-Lieve-Vrouwekerk,50.79216429,4.052103801,0
1,Sint-Petrusbanden en Sint-Berlindiskerk,50.87253221,3.832818803,0
2,Sint-Machariuskerk,50.77588475,3.869851649,0
8,Sint-Pieterskerk,50.82487107,4.040548044,0
9,Sint-Amelbergakerk,51.21501883,4.660999541,0
14,Sint-Audomaruskerk,51.08768148,2.744251861,0
15,Heilige Pastoor van Arskerk,51.08532917,2.942839339,0
18,Sint-Amanduskerk,51.15991335,3.045990342,0
22,Sint-Eligiuskerk,51.17906801,3.032153087,0
24,Sint-Jozefkerk,51.25247633,5.385545098,0
25,0,51.20955004,5.42723415,0
27,Sint-Trudokerk,51.13627394,5.414149881,0
28,Sint-Willibrorduskerk,51.17828121,5.08986043,0
35,Sint-Brixiuskerk,50.89297649,3.336599463,0
36,Onze-Lieve-Vrouwe van de Altijddurende Bijstandkerk,50.74805,3.566096179,0
39,Sint-Jan Baptistkerk,51.02811224,4.984141905,0
40,Onze-Lieve-Vrouw Bezoeking en Bijstandkerk,51.39744211,4.501091712,0
41,Maria Magdalenakerk,50.70730128,5.150817619,0
42,Sint-Sulpitius en Dionysiuskerk,50.98491279,5.051086274,0
43,Sint-Pancratiuskerk,50.96083689,5.090586169,0
44,Sint-Engelbertuskerk,51.03850186,5.096286704,0
45,Woon- en dagcentrum Poels,50.9780046,5.051831885,0
52,Sint-Evermaruskapel,50.74503117,5.444678065,0
53,Sint-Jozefkerk,51.05071245,5.607509361,0
55,0,50.92413361,5.704037243,0
70,0,51.16225139,5.000061773,0
71,Sint-Dimpnakapel,51.16459756,5.011869674,0
74,Sint-Margarethakapel,50.8617823,3.722784759,0
75,0,50.84453234,3.87833751,0
76,0,50.85179549,3.858579599,0
78,0,50.73964926,3.905063355,0
79,Onze-Lieve-Vrouw-Geboortekerk,50.88721628,4.957217883,0
83,Onze-Lieve-Vrouw Bezoekingkerk,51.44288647,4.736652953,0
86,0,50.96769601,2.704963435,0
88,0,50.76223208,5.50874308,0
89,0,50.88633569,5.478464503,0
90,0,50.75255561,5.849206619,0
92,Sint-Pauluskerk,50.76042889,4.024099668,0
96,Sint-Lambertuskerk,51.16262179,5.063866764,0
97,Kopkapel,51.11508192,3.997873775,0
98,Onze-Lieve-Vrouw Hemelvaartkerk,51.2300832,3.676173283,0
99,Sint-Arnolduskerk,50.80840955,3.475782833,0
100,Onze-Lieve-Vrouw Hemelvaartkerk,51.27591406,3.627886796,0
101,Sint-Jan-de-Doperkerk,51.03938461,5.173278431,0
103,Steenhoutbos,50.76922341,4.042757035,0
104,Kapel Lorette,50.75640145,3.654083455,0
106,Sint-Amanduskerk,50.87083426,3.551722537,0
107,Onze-Lieve-Vrouw van La Salettekerk,50.77089731,3.644174204,0
108,De Rozenkrans,51.13128059,2.670132838,0
110,Sint-Gorikskerk,50.85271617,3.786268893,0
111,0,50.81383065,4.000482948,0
112,Sint-Martinuskerk,50.82630194,3.990279298,0
114,Sint-Vincentius a Paulokerk,51.46943641,4.503400111,0
115,0,50.99651373,2.907084011,0
118,Sint-Laurentiuskerk,51.10934119,2.763020992,0
119,Kapel Ster der Zee,51.11300329,2.623743368,0
121,Sint-Martinuskerk,50.83324726,3.556837401,0
128,Sint-Pauluskerk,51.01457867,5.720910554,0
129,Sint-Petruskerk,50.91807567,3.69090039,0
134,Sint-Hubertuskerk,51.146897,5.113671846,0
136,0,50.83269862,3.795903492,0
137,St- Hubertuskapel,50.76822163,5.456708944,0
139,Sint-Lambertuskerk,51.02076146,5.395362638,0
140,Heilig Hart en Sint-Antonius van Paduakerk,51.02483128,5.013343138,0
146,Sint-Genovevakerk,50.7978394,5.633448533,0
147,Sint-Remigiuskerk,50.86472257,5.54549733,0
153,Onze-Lieve-Vrouwkerk,51.11287292,5.097206915,0
158,Sint-Stefanuskerk,50.79839209,5.510957429,0
162,Onze-Lieve-Vrouwekerk,50.84957276,3.75240639,0
163,Sint-Martinuskerk,51.03151141,5.371993906,0
170,Sint-Lambertuskerk,51.10169974,5.1469479,0
171,Sint-Jan-de-Doperkerk,50.8076205,5.573656801,0
176,Onze-Lieve-Vrouw Hemelvaartkerk,50.97843611,3.695490665,0
177,0,50.77375998,5.468276235,0
179,Sint-Pietersbandenkerk,50.82308844,3.94928771,0
183,Sint-Jan-Baptistkerk,51.16174702,5.264788804,0
184,Sint-Amanduskerk,50.92859287,3.662791558,0
187,Sint-Laurentiuskerk,51.09774757,5.75901523,0
193,0,51.08367837,3.128511788,0
194,Sint-Hubertuskerk,50.82730688,5.45145717,0
199,Sint-Joriskerk,51.13254185,3.67880624,0
200,Sint-Servatiuskerk,50.76598738,5.530714851,0
201,Sint-Martinuskerk,50.74940326,5.812548051,0
203,Sint-Martinuskerk,50.78219244,3.910738651,0
204,Sint-Jozefkerk,51.13105165,5.091654272,0
212,Onze-Lieve-Vrouw Hemelvaartkerk,50.76978464,5.357610497,0
213,Sint-Servatiuskapel,50.780998,4.915315136,0
214,O.L.V. van bijstand,50.76556372,4.906750673,0
215,Onze-Lieve-Vrouwkerk,51.14759168,5.58831693,0
217,0,51.18862799,5.588937003,0
218,Sint-Willibrorduskerk,50.99836482,5.141580161,0
219,Sint-Gerardus Majellakerk,51.02860631,4.65626396,0
220,Sint-Niklaaskerk,51.28945367,5.189957357,0
223,0,51.14939897,2.926543421,0
224,Sint Martinuskerk,51.03760094,5.722643845,0
225,Sint-Pieterskerk,51.06571558,5.759357851,0
230,Sint-Jacobskerk,50.8502236,2.890477041,0
231,Sint-Antoniuskapel,50.87344784,3.770705138,0
232,Sint-Willibrorduskerk,51.15493357,5.561430364,0
233,Berdam,50.82775571,4.026698005,0
234,Sint-Gangulfuskerk,50.8964324,3.715408307,0
235,Sint-Domitianuskerk,50.83317879,5.480241246,0
236,Sint-Hubertus en Vincentiuskerk,51.02325164,5.313803315,0
237,Sint-Jozef Werkmankerk,51.04200556,5.384547903,0
239,Onze-Lieve-Vrouwekerk,50.98730553,5.057087714,0
242,Onze-Lieve-Vrouwekerk,51.1255939,2.817757671,0
249,Sint-Eligiuskerk,50.86816102,3.622068431,0
250,Sint-Ursmaruskerk,50.88526606,3.511370602,0
251,Sint-Martinuskerk,50.77500257,3.447935956,0
253,Sint-Mattheuskerk,50.81305912,3.917638018,0
254,Sint-Pietersbandenkerk,50.90547523,3.73989143,0
255,0,50.87381941,5.50833062,0
257,Sint-Trudokerk,51.05573253,5.383942406,0
258,Onze-Lieve-Vrouw van Lourdeskapel,50.82928797,5.618237321,0
261,Sint-Pietersstoelkerk,50.85033671,3.56228787,0
268,Sint-Monulphus en Gondulphuskerk,51.25465733,5.47916614,0
271,Sint-Filippus en Jacobuskerk,51.22454038,3.97658569,0
272,Sint-Bartholomeuskerk,50.81309739,2.980274998,0
273,Sint-Bertinuskerk,50.85509956,2.726209856,0
274,0,50.87437543,5.513321136,0
277,Sint-Amanduskerk,50.74274733,3.930538981,0
278,Onze-Lieve-Vrouw Hemelvaartkerk,50.83771365,3.687679109,0
279,Onze-Lieve-Vrouwkerk,50.76214873,3.828678294,0
281,Sint-Niklaaskerk,51.10086467,2.891380124,0
283,0,51.2202827,5.445515228,0
285,Onze-Lieve-Vrouw-Onbevlekt-Ontvangenkerk,51.06943576,5.126085805,0
287,0,50.82960844,5.537087157,0
288,Sint-Genovevakerk,50.82938695,4.990214486,0
289,Sint-Petrus- en Sint-Pauluskerk,50.88458245,2.816342722,0
290,Sint-Petrus- en Sint-Martinuskerk,51.2278015,3.753277909,0
293,Heilig Hartkerk,50.86758942,3.818878094,0
295,Onze-Lieve-Vrouw Maagd der Armenkerk,51.13355377,5.256610538,0
299,Heerlekapel,51.21604619,4.865173358,0
300,Kapel O.L. Vrouw van Rust,50.88074727,5.571882787,0
304,0,50.86557757,2.716737651,0
306,0,51.22795517,3.750777104,0
309,Sint-Martinuskerk,50.83428643,3.622635085,0
312,Sint-Remigiuskerk,51.05733295,4.671402603,0
315,Sint Elisabeth,51.18529769,4.836746542,0
316,Sint-Jan Baptistkerk,51.22682854,4.835427099,0
317,Sint-Trudokerk,50.77104726,5.025608728,0
320,Onze-Lieve-Vrouw Bezoekingskerk,51.16674501,4.945473182,0
321,Heggekapel,51.2189195,4.832953673,0
324,Sint-Laurentiuskerk,51.09888145,4.948599528,0
326,Sint-Martinuskerk,50.92000611,2.624774297,0
329,Sint-Agapituskerk,50.84045128,5.42950473,0
330,Onze-Lieve-Vrouw Geboortekerk,51.08792214,3.491082041,0
331,Sint-Martinuskerk,50.93427551,3.432566553,0
334,Kapel van Onze-Lieve-Vrouw ten Eik,51.108873,4.920982431,0
345,Kapel van Onze-Lieve-Vrouw van de Heinkensberg,50.86482216,4.930253721,0
347,Sint-Walburgakerk,50.84256306,3.603146133,0
348,Sint-Rochuskapel,50.8814253,5.537564345,0
349,Kapel Onze-Lieve-Vrouw Ter Heibaan,51.12094873,5.638042916,0
352,Onze-Lieve-Vrouw-Hemelvaartkerk,50.86922091,3.810936385,0
353,Onze-Lieve-Vrouw-Geboorte en Sint-Jozefkerk,50.88926437,3.808837534,0
357,Kapel Onze-Lieve-Vrouw-van-Oudeberg,50.77237609,3.890248172,0
358,Sint-Gertrudiskerk,50.84910336,3.924938248,0
359,0,50.77263428,3.876918846,0
360,Sint-Jan-de-Doperkerk,50.72701019,5.427236832,0
362,Sint-Antoniuskerk,51.04156384,5.34631241,0
365,Sint-Joriskerk,50.94121668,5.719979494,0
369,Sint-Rochuskerk,51.01345403,5.22655095,0
372,Kapel van Onze-Lieve-Vrouw van Zeven Weeën,50.74964769,5.490128935,0
375,0,51.16890057,2.776558367,0
380,Sint-Brixiuskerk,50.84088538,5.450630355,0
381,Sint-Paulus-Bekeringskerk,50.85939921,3.820717974,0
382,Klooster Gerkenberg,51.13203236,5.580110236,0
384,Heilig Kind Jezuskerk,50.97915168,5.019301818,0
388,Sint-Amanduskerk,50.95634405,3.642392961,0
389,Sint-Joriskerk,51.13041053,2.778658349,0
393,Sint-Eligiuskerk,50.90600034,3.404005889,0
396,0,50.83143101,3.784870867,0
397,Sint-Pieterskerk,51.12671693,5.659986749,0
403,Sint-Pauluskerk,51.22907917,5.28343149,0
404,Sint-Bavokerk,50.76513138,3.839208541,0
405,Sint-Margarethakerk,50.80303276,4.060133524,0
407,Sint-Lambertuskerk,51.08721109,5.220151876,0
410,0,50.7006883,4.038304464,0
412,Sint-Pietersbandenkerk,50.9428823,3.66326545,0
414,Sint-Laurentiuskerk,50.78383886,2.826284652,0
415,Sint-Martinuskerk,50.83906711,3.644094761,0
416,Sint-Pietersbandenkerk,51.04838466,5.224881783,0
420,Sint-Pieterskerk,50.70755564,3.989996621,0
421,Sint-Gereonkerk,50.72079295,3.908144995,0
422,Onze-Lieve-Vrouwkerk,51.13747864,2.920477176,0
427,Sint-Laurentiuskerk,51.17249045,5.578802302,0
430,Onze-Lieve-Vrouw-Geboortekerk,51.15515802,3.733237185,0
431,Sint-Baafskerk,50.90393314,3.654072537,0
434,Onze-Lieve-Vrouw Onbevlekt Ontvangenkerk,51.19253939,5.150437353,0
435,Sint-Petruskerk,50.75524542,3.430056111,0
436,Sint-Jan-in-de-Oliekerk,50.78915068,3.570604852,0
437,De Lovie,50.8820526,2.695729186,0
438,Kerkje van Laak,51.04329329,5.381199091,0
439,Sint-Jozef Arbeiderkerk,51.08542773,3.096870819,0
442,0,50.76851247,3.857730761,0
447,Sint-Niklaaskerk,51.08604438,5.069904005,0
457,Sint-Gertrudiskerk,50.80597672,5.462064035,0
459,Sint-Mauritiuskerk,50.87063368,5.51766663,0
463,Onze-Lieve-Vrouw van Goede BijstandKerk,50.79236232,4.082354817,0
469,Onze-Lieve-Vrouwkapelanij,50.73025885,3.967900792,0
471,Sint-Petruskerk,50.78229027,2.772331816,0
473,Sint-Jozefskerk,50.85220805,3.611446297,0
475,Sint-Pieters-Bandenkerk,50.85544168,3.81436527,0
476,Sint-Martinuskerk,50.74080922,4.006529664,0
479,Sint-Bernarduskerk,51.211403,5.134157578,0
481,Sint-Martinuskerk,51.06777345,5.088544685,0
482,Heilige-Familiekerk,51.02058093,5.117235805,0
483,Sint-Ghislenuskerk,51.15187052,3.606113927,0
484,Sint-Lambertuskerk,50.90736096,5.68758037,0
487,Heilig Hartkerk,50.81578622,3.021190442,0
489,Sint-Jan Baptistkerk,50.85786397,5.459561079,0
490,Heilig Kruiskerk,51.25769912,3.717790937,0
502,Sint-Aldegondekerk,50.76234709,3.864085795,0
503,Sint-Andreaskerk,50.8680622,3.787604952,0
506,Sint-Pancratiuskerk,50.7294188,5.063723034,0
507,0,50.78700381,5.599191933,0
508,Sint-Catharinakerk,50.77925954,5.46936941,0
509,Begraafplaats Herzele,50.88752472,3.890238212,0
512,Sint-Medarduskerk,51.12994746,3.026794601,0
513,Sint-Trudokerk,50.96587061,5.137581426,0
516,0,50.77254936,3.677001192,0
517,Heilige Kruisvindingskerk,51.27466273,5.474677463,0
518,Sint-Stefanuskerk,50.78466391,5.560857371,0
522,Sint-Martinuskerk,50.79037542,5.49326143,0
525,Sint-Niklaaskerk,50.92415294,5.725586464,0
528,Sint-Petrus en Urbanuskerk,50.89916225,3.590439454,0
531,0,50.87415336,3.816930895,0
534,Onze-Lieve-Vrouw Geboortekerk,50.75333431,3.91935402,0
535,Sint-Martinuskerk,50.84264754,3.663004933,0
536,Sint-Hubertuskerk,50.79913141,5.470487214,0
537,Sint-Jan-Baptistkerk,50.78813962,3.989850078,0
538,Sint-Sebastiaankerk,50.83308036,3.764346952,0
542,Sint-Christoffelkerk,51.10931116,3.707985848,0
544,Onze-Lieve-Vrouw-Tenhemelopnemingskerk,50.88916079,5.526159982,0
547,Mariakapel,51.13064682,2.67325002,0
551,Sint-Pieterskerk,50.99196712,5.736621457,0
557,Necropolis,50.80344781,4.958605457,0
558,Sint-Martinuskerk,50.89890846,3.837603246,0
560,Onze-Lieve-Vrouwekerk,50.80303098,3.966698351,0
561,Sint-Martinuskerk,50.88641943,3.350011947,0
562,Onze-Lieve-Vrouw en Sint-Eligiuskerk,50.78960061,3.487591099,0
564,Heilig-Kruiskerk,50.70403019,5.17180711,0
565,Onze-Lieve-Vrouw der Kempenkerk,51.03114112,5.536155742,0
567,Sint-Jozefskerk,51.09241501,3.996318781,0
568,0,50.90448384,3.893435212,0
569,Sint-Machutuskerk,50.75980762,2.85446648,0
571,Onze-Lieve-Vrouwkerk,50.76908827,3.918408023,0
573,Onze-Lieve-Vrouwekerk,51.12885992,2.7509411,0
578,0,51.1981892,5.443113305,0
579,Onze-Lieve-Vrouwkerk,50.74581163,2.826595381,0
580,Sint-Vedastuskerk,50.8170215,2.764253581,0
581,Sint-Victorkerk,50.8909733,2.656854036,0
582,Onze-Lieve-Vrouw van VII Weeënkerk,50.89019415,3.706485898,0
586,Sint-Adrianuskerk,50.87314798,5.559365104,0
587,Kwartier Kamp van Lombardsijde,51.15497167,2.7415184,0
593,0,50.76049011,3.992697048,0
594,Sint-Amanduskerk,50.77793531,3.968726321,0
596,Heilig-Hartkerk,51.01162791,5.28301098,0
597,Sint-Aldegondiskerk,50.83814285,5.54698434,0
602,Sint-Jozefkerk,51.08539721,5.466827862,0
603,Kapel Onze-Lieve-Vrouw-ten-Doorn,50.84876746,3.570535645,0
609,Heilig-Hartkerk,51.12778856,5.009377665,0
611,0,50.75926702,5.758317222,0
612,Sint-Martinuskerk,50.88301354,3.783302075,0
613,Onze-Lieve-Vrouwekerk,50.79524306,3.951253751,0
615,Heilig-Hartkerk,50.81272747,4.928869087,0
616,Sint-Brigidakerk,51.05900658,5.27279865,0
618,Sint-Lambertuskerk,50.86543951,5.632320609,0
620,Sint-Martinuskerk,50.7167527,3.939493495,0
626,Het Groene Lilare,50.82049336,3.717670392,0
632,Sint-Bavokerk,51.08708811,3.641280612,0
633,Leiepoort Campus Sint-Theresia,50.98709836,3.526341431,0
635,Sint-Barbarakerk,51.20990326,5.382672394,0
636,Sint-Corneliuskerk,51.19306391,5.405408788,0
637,0,50.74511461,3.605926203,0
638,Sint-Lambertuskerk,51.13269343,5.809407579,0
639,Sint-Martinuskerk,50.87830281,3.656161511,0
640,Sint-Catharinakerk,50.98800923,5.060825673,0
647,Sint-Pieterskerk,50.92232458,5.694304922,0
648,Sint-Laurentiuskerk,51.00087282,5.747087233,0
651,0,50.73871776,3.966194702,0
652,Onze-Lieve-Vrouw van het Heilig Hartkerk,51.12210549,5.591387061,0
653,Sint-Pieterkerk,50.75192964,3.629287673,0
656,Sint-Niklaaskerk,50.74810609,4.096616765,0
658,0,50.78241006,5.468427324,0
659,Sint-Gertrudiskerk,51.08925102,5.587520392,0
660,Sint-Mattheuskerk,50.87905091,3.733130684,0
661,Sint-Denijskerk,50.86627166,3.753290537,0
662,Sint-Amanduskerk,50.84181243,3.957349682,0
663,0,50.87159252,5.519537186,0
664,Sint-Corneliuskerk,50.77332346,3.485867212,0
666,Sint-Albanuskerk,50.83409358,5.588746182,0
667,Kruisvindingskerk,50.7682024,5.521753515,0
670,Sint-Martinuskerk,50.94562038,3.684471812,0
671,Maagd Der Armenkerk,51.23218141,5.337575885,0
672,Sint-Jan Baptistkerk,50.76635165,2.783481455,0
673,Sint-Amelbergakapel,50.84319412,3.662861617,0
674,Sint-Petruskerk,50.79709092,3.648836772,0
675,Sint-Korneliskerk,50.83511172,3.697449746,0
677,Sint-Willibrorduskerk,51.03393512,5.282074616,0
678,Sint-Jozefskerk,51.06623324,5.035018605,0
679,Onze-Lieve-Vrouw-ter-Noodtkerk,50.95914454,4.233640527,0
681,Onze-Lieve-Vrouw-Geboortekerk,51.20074807,3.889127385,0
687,0,50.90125872,5.654859895,0
694,0,51.04305431,5.624232648,0
701,Sint-Niklaaskerk,50.87293652,4.949013457,0
702,Sint-Severinuskapel,50.79204104,5.588519999,0
709,0,51.11745099,5.248726957,0
710,Sint-Catharinakerk,50.83551646,2.922712089,0
711,Sint-Pauluskapel,50.75594437,3.943229557,0
712,0,50.75181968,3.63274419,0
713,Sint-Pietersbandenkerk,50.82184836,3.895005296,0
714,Sint-Antoniuskerk,50.90486369,3.893642104,0
716,Sint-Servatiuskerk,50.79376726,5.361965496,0
720,Sint-Bernarduskerk,51.14576261,2.710883472,0
726,Sint-Martinuskerk,51.14462991,5.7403581,0
728,Sint-Gilliskerk,50.7862295,5.453890633,0
729,Sint-Willibrorduskerk,51.10058661,2.70041196,0
730,Kapel van de Heilige Stede,50.73835689,3.916912551,0
732,Sint-Dimpnakerk,51.16266754,5.002079571,0
733,Sint-Martinuskerk,50.81595171,3.565277166,0
734,Sint-Lambertuskerk,50.97969677,5.104185341,0
742,Sint-Lambertuskerk,51.02680251,5.207879677,0
743,Sint-Trudokerk,50.97301104,5.072019881,0
745,Sint-Hubertuskerk,50.81742124,5.534161034,0
746,Onze-Lieve-Vrouw van Stoepekapel,51.19084072,3.753709179,0
752,Sint-Pieterskerk,50.84703925,2.889702279,0
753,0,50.83854227,3.059391841,0
754,Sint-Stephanuskerk,50.80703663,5.496972059,0
755,Sint-Lutgartkerk,50.78265893,5.476619256,0
756,Sint Martinuskerk,50.91308652,3.652426115,0
761,Sint-Vedastuskerk,50.86672209,3.63338423,0
762,Allerheiligenkerk,50.88598484,3.685536349,0
767,Onze-Lieve-Vrouw Hemelvaartkerk,51.17906205,3.747405455,0
769,Sint-Jacobuskerk,51.02613823,5.240371361,0
770,0,50.76836779,5.558786104,0
772,0,50.77377507,4.062490657,0
774,Sint-Denijskerk,50.86568785,3.711839804,0
775,Sint-Martinuskerk,50.87259893,3.915804217,0
777,Sint-Martinuskerk,51.02081909,3.640146129,0
781,Goddelijke Zaligmakerkerk,50.79439842,4.981548224,0
783,Sint-Bernarduskerk,50.73510317,4.111764088,0
785,Sint-Niklaaskerk,51.12016896,2.677990464,0
786,Sint-Andreaskerk,50.9055913,3.71654975,0
788,Sint-Pieters-in-de-Bandenkerk,50.94859454,5.114573606,0
791,Heilig Hartkapel,51.09814113,3.988288791,0
792,Vredeskapel,50.88015356,3.734645176,0
793,0,50.89224226,3.885852201,0
794,Onze-Lieve-Vrouwebasiliek,50.78089571,5.464638719,0
801,Sint-Mattheüskerk,50.82819276,3.505746017,0
804,Sint-Amanduskerk,50.86841432,4.985807037,0
806,Hoevekerk,51.02094128,4.949868706,0
807,Sint-Lambertuskerk,51.19076171,4.737927699,0
808,Onze-Lieve-Vrouw Koningin van de Vredekerk,51.15094717,4.617160316,0
810,Sint-Pauluskerk,51.16915151,4.650887068,0
811,VZW Wieltjesgracht,50.85513811,2.890083919,0
817,Sint-Niklaaskerk,51.12198479,2.955912981,0
818,Onze-Lieve-Vrouw-Tenhemelopnemingskerk,51.15757525,2.967786809,0
819,Sint-Jozef Ambachtsmankerk,51.19717459,5.127640175,0
820,Sint-Laurentiuskerk,50.76811959,4.952708428,0
823,Sint-Egidiuskerk,51.19470879,3.632411351,0
824,Sint-Petrus en Pauluskerk,50.82626239,5.640666498,0
825,Sint-Pieterskerk,51.10298216,2.65417339,0
826,Onze-Lieve-Vrouw van Fatimakerk,50.84854007,3.858157254,0
829,Sint-Theresiakapel,51.16896457,2.77587188,0
833,Sint-Gertrudiskerk,51.07684666,5.795297327,0
834,Sint-Lambertuskerk,51.04155548,3.44422067,0
835,0,50.74684933,5.45268053,0
837,0,50.85333258,3.819612751,0
839,Sint-Jozefkerk,51.107643,5.695755737,0
840,Sint-Martinuskerk,50.80894625,5.602239562,0
842,Sint-Janskerk,50.85909155,2.664685142,0
844,Pianos Maene,50.92399123,5.700153601,0
849,Sint-Niklaaskerk,50.76612073,4.919626477,0
850,Sint-Vincentiuskapel,50.82276658,3.654648846,0
851,Toepkapel,50.80018468,3.77667836,0
852,Onze-Lieve-Vrouwkerk,51.12526331,3.980148908,0
855,Sint-Martinuskerk,50.90514648,3.69834173,0
856,Sint-Apolloniakerk,50.83027321,3.739590603,0
857,0,51.22203307,5.297328665,0
859,Sint-Andreaskerk,50.93481171,5.070404838,0
862,Sint Petrus en Pauluskerk,50.80084842,4.953407777,0
864,Sint-Bartholomeuskerk,50.91645995,5.004291699,0
865,0,51.2098884,5.319096931,0
868,Sint-Niklaaskerk,51.08742915,4.873044964,0
869,Sint-Willibrorduskerk,51.14206828,5.149105875,0
870,Onze-Lieve-Vrouw Onbevlekt Ontvangenkerk,51.09697722,5.44668694,0
872,Sint-Petrus en Pauluskerk,51.07474752,3.534979796,0
876,Sint-Blasiuskerk,51.10897013,5.228663959,0
878,Sint-Ursulakerk,51.17232926,5.449803533,0
879,Sint-Lambertuskerk,51.10549713,5.003592264,0
880,Sint-Odradakerk,51.18872285,5.078527329,0
881,Kapel O.L. Vrouw Geboorte,51.2171971,5.038761235,0
882,Sint-Pieterskerk,51.06558892,3.101649863,0
883,Sint-Martinuskerk,51.21122115,5.426186365,0
884,Sint Trudokerk,51.13112726,5.078890993,0
885,Kapel Sint-Jans Onthoofding,51.18112174,5.202200011,0
886,Sint-Elisabethkapel,51.14028389,5.090208935,0
887,0,51.13594761,5.446035768,0
888,Sint-Annakapel,51.11931732,5.267186791,0
889,Sint-Apolloniakerk,51.20093107,5.098429344,0
890,Sint-Pieter en Pauwelkerk,51.18436075,5.116315853,0
891,Kapel van het Heilig Graf,51.13511616,5.077248984,0
892,Banneuxkapel,51.09109421,5.266275541,0
893,Sint-Trudokerk,51.15387543,5.395356283,0
894,0,51.17786664,5.20216633,0
895,Sint-Pietersbandenkerk,51.22854008,5.314949713,0
896,Onze-Lieve-Vrouw-Tenhemelopnemingkerk,51.11444266,5.263421796,0
897,0,51.10084446,5.145009698,0
899,Sint-Lambertuskerk,51.1262043,5.364603433,0
900,Kapel van Onze-Lieve-Vrouw van Zeven Weeën,51.16142892,5.417641301,0
903,0,51.08388501,5.140770467,0
906,Sint-Valentinuskerk,51.04370916,5.31502437,0
908,Sint-Jozefskerk,50.96883043,2.912497654,0
909,Sint-Martinuskerk,51.02847032,2.96289879,0
910,Sint-Dionysiuskerk,51.01870157,2.957997034,0
911,Kapel van O.L. Vrouw aan de Staak,51.08286623,5.322119961,0
914,Sint-Jan-Baptistkerk,51.01313337,2.808708829,0
919,0,50.99828834,5.066800599,0
924,Sint-Barbarakerk,50.98411488,5.053686017,0
925,Allerheiligenkapel,50.98374218,5.048303922,0
926,Onze-Lieve-Vrouwkerk,50.95186959,5.014328159,0
929,0,51.14983965,5.473838677,0
930,Sint-Jozef Werkman,51.11302313,5.773776515,0
931,Boskapel,51.2245445,5.494825171,0
932,Dullerkapel,51.10683462,5.463303961,0
933,Sint-Monulphus en Gondulphuskerk,51.18828685,5.518088671,0
934,0,51.09262306,5.56970781,0
935,Sint-Antoniuskapel,51.11481697,5.658867482,0
936,Sint-Harlindis en Relindiskapel,51.10108472,5.80491546,0
937,Kruisherenkerk,51.09535748,5.789448757,0
938,Sint-Harlindis- en Relindiskerk,51.13008028,5.524211914,0
939,Deusterkapel,51.12300705,5.482176052,0
940,0,51.25103685,5.548253359,0
941,0,51.25489079,5.552776517,0
942,0,51.26474034,5.549485616,0
943,0,51.25015467,5.540099557,0
944,Laarderkapel,51.13936871,5.511783387,0
945,0,51.1526522,5.507096839,0
946,Daalkapel Onze-Lieve-Vrouw Moeder van Smarten,51.17862507,5.737226157,0
947,0,51.0864005,5.763265129,0
948,0,51.2603679,5.463588945,0
949,0,51.18228641,5.526639521,0
950,Kiekapel,51.09647547,5.523261139,0
951,0,51.13194659,5.810715534,0
952,0,51.24146675,5.515339521,0
953,Sint-Annakerk,51.10196472,5.80569359,0
954,0,51.24219334,5.535065068,0
955,Sint-Hubertuskerk,51.1210843,5.493715479,0
956,Onze-Lieve-Vrouw van Lourdes,51.16813948,5.738106236,0
957,Priorij Klaarland,51.20483577,5.578802067,0
958,Maria Hulp der Christenenkerk,51.08856172,5.686076796,0
959,0,51.2533564,5.527944411,0
960,Kapel 18,51.18458459,5.572768326,0
961,Sint-Catharinakerk,51.09504867,5.794383445,0
962,Kapel Onze Lieve Vrouw van Banneux,51.11004655,5.69424192,0
963,Sint-Monulphus en Gondulphuskerk,51.22586527,5.48519752,0
966,0,51.19420338,3.63061325,0
968,Kapel Onze-Lieve-Vrouw van Lourdes,51.10531697,3.701574664,0
970,Kapel van Troost en Vrede,51.18139259,3.641260817,0
973,0,51.13744521,3.679045627,0
976,0,51.10236023,4.001030552,0
981,Sint-Martinuskerk,51.09035403,2.979249121,0
982,Sint-Michielskerk,51.17061441,3.032729409,0
983,Keunekapel,51.10992304,2.615914076,0
985,0,51.12801497,2.747530764,0
989,Sint-Petruskerk,51.12669486,2.875432947,0
992,0,51.09899905,2.582576844,0
994,0,51.15622805,2.970289794,0
998,Sint-Maria-Magdalenakerk,50.82110523,3.847216125,0
999,Viso Cor Mariae,50.80085512,3.762754719,0
1000,Sint-Jan Baptistkerk,50.97809438,2.951606085,0
1002,Sint-Jozefskerk,50.77447094,3.776110294,0
1003,Sint-Amatuskerk,50.93378466,2.741782542,0
1004,Sint-Martinuskerk,51.04646793,2.915795355,0
1005,Sint-Pieterskerk,50.98095042,2.748760387,0
1006,Sint-Barnabaskerk,50.95523768,2.810721296,0
1007,Sint-Martinuskerk,50.7928702,3.747866679,0
1008,Sint-Pieterskerk,51.44550448,4.409901815,0
1010,Sint-Amanduskerk,50.88810848,3.829809087,0
1011,Sint-Jozefkerk,51.32904958,4.782548856,0
1012,Sint-Jan Evangelist en Heilige Beggakerk,51.40351708,4.763344179,0
1014,Sint-Petruskerk,50.9754827,2.674575535,0
1017,Sint-Antonius van Paduakerk,51.46192382,4.455229008,0
1018,Sint-Jozefkerk,51.17578701,4.985038318,0
1020,0,50.88197595,3.780941577,0
1021,Sint-Lambertuskerk,50.78483447,3.797911856,0
1022,Sint-Pancratiuskerk,50.77214952,5.407671956,0
1023,0,50.75982052,3.881802504,0
1024,Onze-Lieve-Vrouw Hulp der Christenenkapelanij,50.84826893,4.99672646,0
1025,Sint-Petruskerk,50.80660784,3.67942669,0
1026,Sint-Niklaaskerk,51.08089532,2.881884867,0
1029,Sint-Michielskerk,50.99607061,4.937619698,0
1030,Heilig-Kruiskerk,50.76576629,5.037442965,0
1032,0,51.09746226,3.609472019,0
1033,Sint-Godelievekerk,51.10867244,3.431764546,0
1035,Sint-Martinuskerk,51.09534593,3.606644561,0
1039,Sint-Ghislenuskerk,51.15203935,3.606208598,0
1042,BKO @bij (vroeger Sint-Jozefkerk),51.1933405,3.537672822,0
1043,Sint-Amanduskerk,50.81386639,5.406209732,0
1052,Sint-Audomaruskerk,51.07538158,2.602912139,0
1053,Sint-Servaaskerk,50.88653179,4.994560624,0
1054,Sint-Martinuskerk,50.92747599,2.71755785,0
1055,Sint-Jan-Onthoofdingkerk,50.94032573,2.674055433,0
1058,Sint-Bertinuskerk,51.04338863,2.65101394,0
1059,Sint-Blasiuskerk,50.91513915,2.688864844,0
1060,Onze-Lieve-Vrouw-Hemelvaartkerk,51.0122445,2.605973611,0
1061,Sint-Audomaruskerk,51.01625149,2.662299865,0
1062,Sint-Mildredakerk,50.99349726,2.654966373,0
1063,Sint-Walburgakerk,51.07325728,2.661678428,0
1064,0,50.99451768,2.655230406,0
1065,Sint-Lambertuskerk,50.97943627,2.692900181,0
1066,Sint-Niklaaskerk,51.07226602,2.663573427,0
1067,Onze-Lieve-Vrouwekerk,51.01548092,2.656052017,0
1068,Sint-Eustachiuskerk,51.00142971,4.984755787,0
1069,Heilige Kruisverheffingkerk Jesseren,50.8060063,5.390905827,0
1070,Sint-Martinuskerk,50.90628655,2.618429132,0
1072,0,50.8476813,4.996702876,0
1073,Sint-Audomaruskerk,50.93868479,2.642272805,0
1075,Sint-Jan de Doperkerk,51.16327457,4.826361785,0
1085,Sint-Laurentiuskapel,50.82129204,5.085416897,0
1087,Onze Lieve Vrouw van de Vrede,50.88133524,5.076241587,0
1090,Sint-Germanuskerk,50.89558326,5.012194405,0
1109,Sint-Baafskerk,51.14093676,4.840442842,0
1133,Sint-Quintinuskerk,50.8133699,5.018505114,0
1134,Sint-Amorkerk,50.90966238,5.05733081,0
1137,Sint-Sulpitiuskerk,50.7947018,5.039562371,0
1144,Sint-Pieterskerk,50.80410446,5.062652877,0
1147,Onze-Lieve-Vrouw van de Rozenkranskerk,50.87533986,5.040092286,0
1148,Sint-Mauritiuskerk,50.79448677,5.052787117,0
1150,Sint-Lambertuskerk,50.75855643,5.332847842,0
1151,Onze-Lieve Vrouwkerk,50.84444292,5.085250194,0
1155,Sint-Pietersbandenkerk,50.85086356,5.419305624,0
1160,Onze-Lieve-Vrouw van het Heilig Hartkerk,50.8442232,5.046392942,0
1161,Sint -Wivinakerk,50.75320314,5.0492328,0
1164,Sint-Pantaleon-kerk,50.81638169,5.362909438,0
1166,Sint-Pauluskerk,50.88996229,5.116062836,0
1168,Sint-Gilliskapel,50.78741433,5.442936504,0
1169,Sint-Ludgeruskerk,50.81241818,5.44482555,0
1171,Abdij Mariënlof,50.81438114,5.357528746,0
1174,Sint-Martinuskerk,50.76116198,5.373713827,0
1177,Sint-Alfonskerk,50.78546903,5.38061091,0
1179,Sint-Aldegondekerk,50.77675012,4.999686252,0
1184,Sint-Pieterskerk,50.79353718,5.400410003,0
1190,Kristus Koningkerk,50.78506493,5.030638305,0
1200,Sint-Petruskerk,51.16028996,3.390116778,0
1207,Onze-Lieve-Vrouwkerk,50.87272572,5.126304618,0
1210,Onze-Lieve-Vrouw en Sint-Jozefkerk,51.0312736,4.756877932,0
1211,0,50.79961117,4.926345292,0
1215,Sint-Maartenskerk,50.83836651,4.924024624,0
1216,Zaal Fietskluis,50.84568668,5.608969041,0
1217,Sint-Niklaaskerk,50.97436031,4.893720654,0
1219,0,51.03594275,2.86319894,0
1222,Sint-Jans Onthoofdingkerk,51.05018647,2.722086484,0
1223,Sint-Catharinakerk,50.86285561,5.573956521,0
1224,IKSO,50.85039973,5.486754874,0
1225,Sint-Janskerk,50.77837074,5.46470484,0
1226,Sint-Medarduskerk,50.75238173,5.497520934,0
1227,Onze-Lieve-Vrouw Maria Middelareskerk,50.86939334,5.482583965,0
1228,Onze-Lieve-Vrouw-ten-Hemel-Opnemingskerk,50.7567593,5.71043484,0
1229,Sint-Maternuskerk,50.77535404,5.451653492,0
1230,Sint-Stephanuskerk,50.85035192,5.488306498,0
1231,Sint-Hubertuskerk,50.81375795,5.673655669,0
1232,Sint-Pieterskerk,50.79154093,5.620542613,0
1233,Onze-Lieve-Vrouw-Onbevlekt Ontvangenkapel,51.07591353,2.676212622,0
1234,0,51.43935093,4.433128656,0
1236,Sint-Adrianuskerk,51.20300312,3.485723751,0
1237,Sint-Pieterskapel,50.75946973,5.364068649,0
1240,Sint-Amanduskerk,50.77640767,3.523982493,0
1244,Kapel Wittentak,50.75691643,3.576422157,0
1249,Sint-Veerlekerk,51.04644649,2.796005334,0
1253,Heilige Familiekerk,50.88657312,3.418714069,0
1254,Kapel Onze Lieve Vrouw van Kerselare Bedevaartsoord,50.83042535,3.629967097,0
1255,Onze-Lieve-Vrouw van de Carmelkerk,50.79082497,3.508661485,0
